,index,name,cre_id,Lng,Lat,place_id,gas_price,gas type,Rating,User Ratings,Google_Name,Address,Types
9967,26386,LLANTYGAS SA DE CV,PL/11021/EXP/ES/2015,-100.3449,25.71722,13310,18.7,regular,3.7,113,OXXO GASOLINERA,"Av Fidel Velázquez, México 85, Mitras Nte., Monterrey","gas_station, point_of_interest, establishment"
9968,26388,DARA SERVICIOS S.A. DE C.V.,PL/12564/EXP/ES/2015,-102.7641,20.80434,13312,19.39,regular,4.4,51,Pemex,"Av. Mariano Matamoros No. 684, Alameda, Tepatitlán de Morelos","gas_station, point_of_interest, establishment"
9969,26390,ESTACION DE SERVICIO CRUZ DORADA S.A DE C.V,PL/11022/EXP/ES/2015,-97.42611,16.000529999999998,13313,19.71,regular,5,2,Pemex,"Av. Loma Bonita S/N Esquina Calzada Escuela Normal, Villa de Tututepec de Melchor Ocampo","gas_station, point_of_interest, establishment"
9970,26393,"ARGUS GASOLINERA, S.A. DE C.V.",PL/12565/EXP/ES/2015,-103.6975,20.680229999999998,13314,18.9,regular,3.6,11,Gasolinera Pemex,"Tala, Guadalajara, Km 12.50, Puerto Vallarta","gas_station, point_of_interest, establishment"
9971,26396,EDUARDO HUACUZ CABALLERO,PL/11023/EXP/ES/2015,-101.2809,19.39311,13315,18.01,premium,3.7,69,PEMEX-8188,"Michoacán Tiripetio - Eréndira, Villa Madero","gas_station, point_of_interest, establishment"
9972,26399,GRUPO GASOLINERO ORTIZ S.A. DE C.V,PL/11235/EXP/ES/2015,-94.45093,18.123079999999998,13316,17.32,regular,4,13,Grupo Ortiz,"Plan de Ayala LB, Nueva Obrera, 96598 Coatzacoalcos, Ver., Plan de Ayala LB, Nueva Obrera, Coatzacoalcos","gas_station, point_of_interest, establishment"
9973,26402,Suministradora de Combustibles y Lubricantes de Puerto Madero S.A. de C.V.,PL/11236/EXP/ES/2015,-92.39935,14.704839999999999,13319,18.25,regular,3.9,17,"Lubricantes y Combustibles Marinos, S.A. de C.V.","PARQUE INDUSTRIAL FRANCISCO I MADERO LOTE 25, 26, 33 Y 34 PUERTO CHIAPAS, Tapachula","gas_station, point_of_interest, establishment"
9974,26404,"SUPERSERVICIO ATOTONILQUILLO, SA DE CV",PL/11954/EXP/ES/2015,-103.1144,20.39098,13320,19.65,regular,3.1,22,Pemex,"Carr. Guadalajara - Ocotlán 119, Atotonilquillo","gas_station, point_of_interest, establishment"
9975,26407,JOSE ALONSO CARLOS CASTAÑEDA,PL/11237/EXP/ES/2015,-114.9171,32.52375,13322,17.25,regular,4,12,bp,"Lázaro Cárdenas Carretera, Mexicali - San Luis Río Colorado Km. 60, Ejido Hermosillo","gas_station, point_of_interest, establishment"
9976,26410,"Gasolinera Juquilita, S.A. de C.V.",PL/12567/EXP/ES/2015,-96.71786,16.73314,13323,19.5,regular,0,0,Pemex,"5 de Febrero Nte. 1, San Pedro Apostol","gas_station, point_of_interest, establishment"
9977,26412,NOGALES ENERGETICOS S.A. DE C.V.,PL/12563/EXP/ES/2015,-103.0498,20.16255,13325,20.19,regular,5,1,Pemex,"Av. Nacional # 245 Eje Poniente, Tizapán el Alto","gas_station, point_of_interest, establishment"
9978,26415,"ESTACION DE SERVICIOS EL CAPITAN, SA DE CV",PL/12568/EXP/ES/2015,-116.6031,31.8412,13326,17.99,regular,4.5,75,ARCO Gasolinera,"Km. 111, Carr. Transpeninsular Faccionamiento, Acapulco, Ensenada","gas_station, point_of_interest, establishment"
9979,26418,"Gasolinera Turymayo, S.A. de C.V.",PL/11238/EXP/ES/2015,-109.4524,27.06983,13328,20.29,regular,5,1,Repsol,"Constitucion, Navojoa","gas_station, point_of_interest, establishment"
9980,26420,SUPER SERVICIOS LA VILLA DE GUADALUPE S.A. DE C.V.,PL/12571/EXP/ES/2015,-100.2625,25.679170000000003,13330,18.79,diesel,2,2,Pemex,"Estatua Eloy Cavazos, Av. Benito Juárez, Centro de Guadalupe, Guadalupe","gas_station, point_of_interest, establishment"
9981,26423,"Gasolinera Turymayo, S.A. de C.V.",PL/11239/EXP/ES/2015,-109.4442,27.08016,13331,20.29,regular,3.5,6,Gasolinera Repsol,"Centro, Reforma, Navojoa","gas_station, point_of_interest, establishment"
9982,26425,GUERRERO GASOLINEROS SA DE CV,PL/11240/EXP/ES/2015,-100.4364,26.499470000000002,13332,18.33,regular,4.2,67,Gasolinera,"Av. José María Domínguez Lecea 27, Cd de Villaldama","gas_station, point_of_interest, establishment"
9983,26427,"GUERRERO GUTIERREZ, SA DE CV",PL/11241/EXP/ES/2015,-100.4975,26.539409999999997,13334,18.33,regular,4.3,16,GUERRERO GUTIERREZ,"Gral Padre Mier 430, Las Flores, Bustamante","gas_station, point_of_interest, establishment"
9984,26428,Gasoltlax Tres SA de CV,PL/12572/EXP/ES/2015,-98.22268000000001,19.31648,13335,18.3,regular,3.4,55,Gasolineria Pemex,"Ocotlán - Sta Ana 1, Ocotlán","gas_station, point_of_interest, establishment"
9985,26431,Oil Services Tres SA de CV,PL/12573/EXP/ES/2015,-98.18694,19.33812,13336,18.0,regular,3.9,13,Gasolinera Pemex,"Calle Melchor Ocampo No. 50, Primera Secc, Apetatitlán","gas_station, point_of_interest, establishment"
9986,26434,PETRO FUELS SAN FRANCISCO SA DE CV,PL/12574/EXP/ES/2015,-99.15077,23.74381,13339,17.99,regular,0,0,Gasolinera Pemex,"Mier Y Teran (19) 1607 Esq. Con Veracruz, Periodista, Cd Victoria","gas_station, point_of_interest, establishment"
9987,26436,HABEB DAVID HADAD DE LA ROSA,PL/11242/EXP/ES/2015,-102.8053,25.35032,13341,19.52,regular,4.2,11,PEMEX,"Blvd. Rogelio Montemayor 601, Niños Héroes, Viesca","gas_station, point_of_interest, establishment"
9988,26438,"OPERADORA DE MINIESTACIONES COMBUSERV, S.A. DE C.V",PL/11024/EXP/ES/2015,-99.04774,19.55941,13343,19.09,regular,3.5,13,Pemex 4888,"Via Jose Maria Morelos casi esquina Nuevo Leon, Jardin de Cerro Gordo, La Purisima Tulpetlac, Ecatepec de Morelos","gas_station, point_of_interest, establishment"
9989,26440,"GASO MICH MICHOACAN, S.A. DE C.V.",PL/11280/EXP/ES/2015,-101.2113,19.70918,13344,16.84,regular,3.4,57,GASOMICH Michoacan,"Av. Michoacán Nº 680, Ampl, Carlos Salazar, Morelia","gas_station, point_of_interest, establishment"
9990,26442,"OPERADORA DE MINIESTACIONES COMBUSERV, S.A. DE C.V",PL/11025/EXP/ES/2015,-99.21091,19.544529999999998,13347,17.99,regular,3.3,193,Hidrosina,"Perif. Blvd. Manuel Ávila Camacho No. 3067, Centro Industrial Tlalnepantla, Tlalnepantla de Baz","gas_station, point_of_interest, establishment"
9991,26444,"OPERADORA DE MINIESTACIONES COMBUSERV, S.A. DE C.V",PL/11281/EXP/ES/2015,-99.63043,19.31776,13348,18.09,regular,1,1,Pemex,"Vialidad, Vía José López Portillo No. 100, Toluca de Lerdo","gas_station, point_of_interest, establishment"
9992,26447,"GASOMICH, S.A. DE C.V.",PL/11282/EXP/ES/2015,-101.2578,19.69756,13349,18.12,regular,5,1,Repsol Tinijaro,"Av Francisco I. Madero Pte No. 5082, Tiníjaro, Morelia","gas_station, point_of_interest, establishment"
9993,26450,"YATEGAS, S.A. DE C.V.",PL/11026/EXP/ES/2015,-99.90384,16.83549,13350,18.79,diesel,0,0,Gasolinera Pemex,"Avenida Gran Via Tropical Y Tambuco S/N, Las Playas, Acapulco de Juárez","gas_station, point_of_interest, establishment"
9994,26451,"GASO MICH SALAMANCA, S.A. DE C.V.",PL/11283/EXP/ES/2015,-101.1986,19.73376,13351,17.3,regular,3.7,130,Repsol,"Av. Torreon Nuevo 1570, Torreón Nuevo, Morelia","gas_station, point_of_interest, establishment"
9995,26453,GRUPO JAGUAR DE OCCIDENTE SA DE CV,PL/11027/EXP/ES/2015,-103.3341,20.67756,13352,18.6,regular,0,0,Gasolineria Estación de Servicios E05146,"Av. República 380, San Juan de Dios, Guadalajara","gas_station, point_of_interest, establishment"
9996,26455,"OPERADORA DE MINIESTACIONES COMBUSERV, S.A. DE C.V",PL/11028/EXP/ES/2015,-99.08001999999999,19.371029999999998,13353,18.49,regular,3.7,539,PEMEX,"Av. Javier Rojo Gómez 482, Guadalupe del Moral, Ciudad de México","gas_station, point_of_interest, establishment"
9997,26458,"OPERADORA DE MINIESTACIONES COMBUSERV, S.A. DE C.V",PL/11029/EXP/ES/2015,-99.2197,19.53417,13354,18.99,regular,2.8,10,Hidrosina,"Autopista México Queretaro No. 1973, Valle de los Pinos 1ra Sección, Tlalnepantla de Baz","gas_station, point_of_interest, establishment"
9998,26461,GASOLINERA DAKOTA DE OCCIDENTE SA DE CV,PL/11284/EXP/ES/2015,-103.34299999999999,20.65716,13355,18.6,regular,3.8,62,Gasolinera Pemex,"Calz. Jesús González Gallo Num.301, San Carlos, Guadalajara","gas_station, point_of_interest, establishment"
9999,26464,GRUPO GASOLINERO EL CAPULIN SA DE CV,PL/11285/EXP/ES/2015,-102.4637,20.69004,13357,18.7,regular,4,2,Gasolinera Pemex,"Carretera Est. 307 Sn Ignacio, Arandas, Ato Margen Derecho Km 52, Arandas","gas_station, point_of_interest, establishment"
10000,26467,GASOLINAS DE MICHOACAN SA DE CV,PL/11286/EXP/ES/2015,-101.13,19.73364,13358,17.7,regular,0,0,Gasolinera Estación 9891,"Av Francisco I. Madero Ote 6500, José Vasconcelos, Morelia","gas_station, point_of_interest, establishment"
10001,26470,"OPERADORA DE MINIESTACIONES COMBUSERV, S.A. DE C.V",PL/12575/EXP/ES/2015,-99.61934000000001,19.25539,13359,16.56,regular,4.8,291,Costco Gas,"Calle Josefa Ortiz de Domínguez, Zona Sin Asignación de Nombre de Col 1, Metepec","gas_station, point_of_interest, establishment"
10002,26472,"GASALVI, S.A. DE C.V.",PL/11030/EXP/ES/2015,-103.3795,20.59925,13360,18.98,regular,3.8,93,Combustibles Arcade,"AnilloPeriférico Sur 6900, Cuyoacan, San Pedro Tlaquepaque","gas_station, point_of_interest, establishment"
10003,26474,"GASOMICH JUAREZ, S.A. DE C.V.",PL/11287/EXP/ES/2015,-101.1988,19.73573,13361,17.2,regular,0,0,GASOMICH,"Av. Torreon Nuevo Nº 1560, Torreón Nuevo, Morelia","gas_station, point_of_interest, establishment"
10004,26477,SAUL RUBIO VALENZUELA,PL/11031/EXP/ES/2015,-108.2246,25.81148,13364,20.99,diesel,4.1,40,Gasolinera Saúl Rubio,Sinaloa,"gas_station, point_of_interest, establishment"
10005,26480,COMBUSTIBLES CHAVEZ SA DE CV,PL/11288/EXP/ES/2015,-103.8655,20.08148,13365,19.99,regular,4,1,Gasolinera Pemex,"Carretera Constitucion Num. 120, Centro, Chiquilistlán","gas_station, point_of_interest, establishment"
10006,26482,"SERVICIO EL CAMINO DE SAN LUIS, S.A. DE C,V,",PL/11289/EXP/ES/2015,-97.45354,19.350089999999998,13367,18.34,premium,0,0,Gasolinera Pemex,"Km 66+965 Carretera Federal Mexico-Veracruz Via, Guadalupe Victoria, Xalapa Enríquez","gas_station, point_of_interest, establishment"
10007,26485,"ALDIA, S.A. DE C.V.",PL/11243/EXP/ES/2015,-98.20509,19.0257,13369,17.39,regular,0,0,Pemex,"Av. 43 Ote. No. 219-A, San Baltazar Campeche, Puebla","gas_station, point_of_interest, establishment"
10008,26487,SANCRIS S.A DE C.V.,PL/11244/EXP/ES/2015,-101.4319,20.39626,13373,19.4,regular,4,6,Pemex,"Ent. Carrts. Irapuato-Abasolo-Huanimaro Km 21+580, Huanímaro","gas_station, point_of_interest, establishment"
10009,26490,"ALDIA, S.A. DE C.V.",PL/11245/EXP/ES/2015,-96.92269,19.560660000000002,13376,18.49,regular,4.3,58,Mobil,"Av. Lázaro Cárdenas Y Plaza Crital No. 81, Rafael Lucio, Xalapa-Enríquez","gas_station, point_of_interest, establishment"
10010,26492,"ALDIA, S.A. DE C.V.",PL/11246/EXP/ES/2015,-98.29624,19.0625,13379,17.89,regular,3.3,35,Pemex,Final de la Recta a Cholula # 314,"gas_station, point_of_interest, establishment"
10011,26495,"GASOLINERA DE LA REGION, S.A. DE C.V.",PL/11247/EXP/ES/2015,-102.05799999999999,19.37319,13380,17.97,regular,3.7,48,PEMEX,"Paseo Gral. Lázaro Cárdenas, Zumpimito, Uruapan","gas_station, point_of_interest, establishment"
10012,26498,DAVID SANCHEZ MALAGON,PL/11255/EXP/ES/2015,-100.5696,20.360039999999998,13381,20.05,regular,3.9,7,Pemex,"Rancho San Rafael Poblado, La Cuevita","gas_station, point_of_interest, establishment"
10013,26501,Autoservico Atlanta S.A. de C.V.,PL/11248/EXP/ES/2015,-99.22305,19.640060000000002,13382,18.3,regular,1,1,Pemex,"Unnamed Road, Cuautitlán Izcalli","gas_station, point_of_interest, establishment"
10014,26504,GASOKIN APASEO EL ALTO SA DE CV,PL/11249/EXP/ES/2015,-100.617,20.45872,13383,16.99,regular,3.6,11,Petrofuels,"38500, Guillermo Prieto 406, Zona Centro, Apaseo el Alto","gas_station, point_of_interest, establishment"
10015,26507,"MEGA SERVICIO ECOLOGICO DE GASOLINA, S.A DE C.V.",PL/11250/EXP/ES/2015,-103.3075,20.66514,13384,17.59,regular,3.8,290,Gasolinera Pemex,"Calle Francisco Sarabia No. 83, San Andrés, Guadalajara","gas_station, point_of_interest, establishment"
10016,26510,"SERVICIOS GASOLINEROS LEO, S.A DE C.V.",PL/11251/EXP/ES/2015,-103.3241,20.65142,13385,17.39,regular,3.5,13,Gasolinera Pemex,"Av, Blvd. Gral. Marcelino García Barragán Num. 1701, Universitaria, Guadalajara","gas_station, point_of_interest, establishment"
10017,26513,SERVICIO INDUSTRIAL DE JALISCO SA DE CV,PL/11252/EXP/ES/2015,-103.3521,20.64067,13386,19.45,regular,3.8,402,Gasolinera Repsol,"Av. Gobernador Luis G. Curiel S/N, Colón Industrial, Guadalajara","gas_station, point_of_interest, establishment"
10018,26516,"SUPERSERVICIO PABLO VALDEZ, S.A DE C.V.",PL/11253/EXP/ES/2015,-103.2826,20.673679999999997,13387,18.49,regular,3.7,213,Gasolinera Pemex,"Calle Pablo Valdez No. 3608, San Joaquín, Guadalajara","gas_station, point_of_interest, establishment"
10019,26518,AUTOSERVICIO PALMIRA SA DE CV,PL/11254/EXP/ES/2015,-110.9442,29.08182,13388,19.99,regular,4,1,Estación de Servicio,"Av. Revolución S/N, Centro, Carbó","gas_station, point_of_interest, establishment"
10020,26520,"GPDC Estaciones de Servicio, S. A. DE C. V.",PL/11256/EXP/ES/2015,-99.22729,19.4718,13389,18.79,regular,3.7,58,Shell,"San Andrés Atoto, Parque Industrial, Naucalpan de Juárez","gas_station, convenience_store, food, point_of_interest, store, establishment"
10021,26523,GASOLINERA RUBIOS SA DE CV,PL/12576/EXP/ES/2015,-108.6826,25.768079999999998,13390,19.99,diesel,0,0,Pemex,Carrt. Cero Km 6.50 Entronque Sta. Teresita # 3,"gas_station, point_of_interest, establishment"
10022,26526,"GASOLINERA ALVER, S.A. DE C.V.",PL/11257/EXP/ES/2015,-110.9152,29.171840000000003,13392,20.39,regular,3.8,9,GASOLINERA ALVER SA DE CV,"Federal Highway 15, Hermosillo - Nogales Km. 9.8, Hermosillo","gas_station, point_of_interest, establishment"
10023,26529,"SERVICIO CERRITOS, S.A. DE C.V.",PL/11258/EXP/ES/2015,-99.16171,18.88778,13393,18.39,regular,0,0,Pemex,"Km 11 Carrt, Calle Amate, Cuernavaca-Cuautla Esq, Jiutepec","gas_station, point_of_interest, establishment"
10024,26532,GASOLINERA EL NUEVO FUERTE SA DE CV,PL/11259/EXP/ES/2015,-102.7756,20.33736,13395,18.88,regular,4.7,3,Gasolinera Pemex,"Niños Heroes Num. 129, Centro, Ocotlán","gas_station, point_of_interest, establishment"
10025,26535,JESUS ERNESTO HERNANDEZ OSEGUERA,PL/11260/EXP/ES/2015,-102.3448,19.07163,13396,19.38,regular,4,56,PEMEX-983,"Apatzingán - Pátzcuaro K.M, La Palmira, Apatzingán de la Constitución","gas_station, point_of_interest, establishment"
10026,26538,GRUPO CHABOCHI SA DE CV,PL/11261/EXP/ES/2015,-107.0507,27.922040000000003,13398,19.48,regular,0,0,Gasolinera Pemex,"Calle Independencia No. 306, Barrio del Perpetuo Socorro, Carichí","gas_station, point_of_interest, establishment"
10027,26540,HIDROCARBUROS Y ESTACIONES DE SERVICIOS SA DE CV,PL/11262/EXP/ES/2015,-107.3995,24.83336,13399,16.63,regular,0,0,Gasolinera Pemex,"Calle Universitarios Ote. S/N, Residencial Alameda, Desarrollo Urbano Tres Ríos, Culiacán Rosales","gas_station, point_of_interest, establishment"
10028,26543,FED. DE COOP. PESQ. GASOLINERA HOLBOX S.C. DE R.S.,PL/11263/EXP/ES/2015,-87.33623,21.43325,13401,19.9,regular,2.2,9,Pemex gasolinera,Calle 1 S/N ( Al Lado Del Muelle Fiscal,"gas_station, point_of_interest, establishment"
10029,26545,"AUTO SERVICIO CASA MAGNA, S.A. DE C.V.",PL/11264/EXP/ES/2015,-109.9286,22.910829999999997,13403,19.09,regular,3.9,56,Pemex,"Aguajitos 1938, Arcos del Sol II, Jardines del Sol, Cabo San Lucas","gas_station, point_of_interest, establishment"
10030,26548,"AUTO SERVICIO CASA MAGNA, S.A. DE C.V.",PL/11265/EXP/ES/2015,-109.7116,23.08875,13404,19.79,regular,5,1,Gasolinera Pemex,"Boulevard Santa Rosa, Calle Forjadores 3506, La Paz","gas_station, point_of_interest, establishment"
10031,26551,"AUTO SERVICIO CASA MAGNA, S.A. DE C.V.",PL/11266/EXP/ES/2015,-110.319,24.1369,13405,17.99,regular,4.4,5,Pemex,"Blvd. Gral. Agustín Olachea # 3590, Esq. Jalisco, Las Garzas, La Paz","gas_station, point_of_interest, establishment"
10032,26553,"AUTO SERVICIO CASA MAGNA, S.A. DE C.V.",PL/11267/EXP/ES/2015,-110.3125,24.09385,13406,18.69,regular,0,0,Gasolinera Pemex,"Callejon Del Acceso, El Calandrio Y, El Calandrio, La Paz","gas_station, point_of_interest, establishment"
10033,26555,servicio j.r. de obregón sa de cv,PL/11268/EXP/ES/2015,-109.9052,27.48307,13407,19.55,regular,0,0,Gasolinera Pemex,"Calzada Francisco Villanueva Castelo No. 1907 Ote, Zona Comercial Francisco Villanueva","gas_station, point_of_interest, establishment"
10034,26558,ESTACION DE SERVICIO LAS GARZAS SA DE CV,PL/11269/EXP/ES/2015,-110.3036,24.05661,13410,18.59,regular,3,2,Gasolinera Pemex,"Carretera Al Sur Km. 10.6, Fraccionamiento El Palmar, La Paz","gas_station, point_of_interest, establishment"
10035,26561,EMERANO LATABAN MARTINEZ,PL/11270/EXP/ES/2015,-99.91029,16.855929999999997,13411,19.17,regular,3.8,139,Gasolinera Pemex,"Calz Pie de la Cuesta # 422, Aguas Blancas, Hogar Moderno, Acapulco de Juárez","gas_station, point_of_interest, establishment"
10036,26563,Autoservicio Galigas S.A. de C.V.,PL/11271/EXP/ES/2015,-99.22355999999999,19.688489999999998,13413,18.3,regular,3.3,16,Pemex,"Av. Huehuetoca S/N. Fraccion B, Cuautitlán Izcalli","gas_station, point_of_interest, establishment"
10037,26566,"Servicio Las Marinas, S.A. de C.V.",PL/11272/EXP/ES/2015,-99.64412,19.29883,13414,17.85,regular,4,2,Gasolinera Matlatzincas,"Calle Paseo Matlatzincas 380, Doctores, Toluca de Lerdo","gas_station, point_of_interest, establishment"
10038,26568,TOPGAS SAN MIGUEL SA DE CV,PL/11273/EXP/ES/2015,-101.1878,20.58935,13415,18.76,regular,0,0,OXXO Gas,"Blvd. J. M. Clouthier #1140, Col. Predio Del, El Monte, Salamanca","gas_station, point_of_interest, establishment"
10039,26570,"MULTISERVICIO EXPRESS DE PERIBAN, S.A. DE C.V.",PL/11274/EXP/ES/2015,-102.4424,19.5494,13416,20.1,diesel,3.6,101,PEMEX,Peribán de Ramos,"gas_station, point_of_interest, establishment"
10040,26573,NOGALES ENERGETICOS S.A. DE C.V.,PL/11275/EXP/ES/2015,-110.3312,24.125870000000003,13417,18.49,regular,3,2,Gasolinera Pemex,"Calzada, Blvd. Gral. Agustín Olachea No. 5010, Indeco, La Paz","gas_station, point_of_interest, establishment"
10041,26576,JUAN CARMONA REYES,PL/11276/EXP/ES/2015,-99.8074,19.379,13418,17.67,regular,4.3,3,Mobil,"Carr. Toluca - Zitácuaro Km.20 San Diego Canchiqui, Villa de Almoloya de Juárez","gas_station, point_of_interest, establishment"
10042,26579,Super Estacion de Alba SA de CV,PL/11277/EXP/ES/2015,-101.0014,22.1656,13419,18.87,premium,3.6,23,Gasolinera de Alba,"Av. Prol. Muñoz 419A, Manuel J. Othon, San Luis","gas_station, point_of_interest, establishment"
10043,26581,JUAN CARMONA REYES,PL/11278/EXP/ES/2015,-99.64159000000001,20.08081,13420,18.57,regular,5,1,Mobil,"Autopista Querétaro - México Km. 108, San Martin, Jilotepec de Molina Enríquez","gas_station, point_of_interest, establishment"
10044,26584,"ASOCIACION DE LA SIERRA MIRADOR, S.A. DE C.V.",PL/11279/EXP/ES/2015,-97.17541999999999,18.739929999999998,13422,15.78,regular,1,1,BP,"Andador Benito Juarez Prolongacion, Cd Mendoza","gas_station, atm, finance, cafe, food, point_of_interest, establishment"
10045,26586,GRUPO GASOLINERO SIERRA GORDA S.A. DE C.V.,PL/11290/EXP/ES/2015,-99.93321,20.90707,13425,19.1,regular,3.9,47,"Gas station Toliman, Qro","Granjeno, Tolimán","gas_station, point_of_interest, establishment"
10046,26589,SERVICIO CARBON S.A. DE C.V.,PL/11291/EXP/ES/2015,-101.4031,27.88832,13428,18.6,premium,4,15,Servicio Carbón SA de CV,"Carretera Munquiz- Rosita N401 Oriente, Tiro Cuatro, Palau","gas_station, point_of_interest, establishment"
10047,26592,SERVICIO CARBON S.A. DE C.V.,PL/11292/EXP/ES/2015,-101.1949,27.92335,13429,19.7,regular,0,0,Pemex,Cloete,"gas_station, point_of_interest, establishment"
10048,26595,ESTACIÓN DE MULTISERVICIOS EDGAR S.A. DE C.V.,PL/11293/EXP/ES/2015,-99.51169,27.48868,13430,13.3,regular,4.3,10,Gasolinera Pemex,"Av Álvaro Obregón No. 1243, Sector Centro, Nuevo Laredo","gas_station, point_of_interest, establishment"
10049,26597,ESTACIÓN DE MULTISERVICIOS EDGAR S.A. DE C.V.,PL/11294/EXP/ES/2015,-99.48924,27.48187,13431,13.3,regular,3,4,Gasolinera Pemex,"Calle Perú 800, Viveros, Nuevo Laredo","gas_station, point_of_interest, establishment"
10050,26599,"Gasolineria Petromex, S.A. de C.V.",PL/11295/EXP/ES/2015,-100.6113,17.18689,13432,18.84,regular,2.8,5,Pemex,"Carrt. Nacional, Acapulco - Zihuatanejo Km 98.5, Técpan de Galeana","gas_station, point_of_interest, establishment"
10051,26602,"Servicio Quinto Patio, S.A de C.V.",PL/11296/EXP/ES/2015,-100.4402,17.15671,13433,18.89,regular,3.8,135,Servicio Quinto Patio,"Km 78+800 Carrt. Nal, Acapulco - Zihuatanejo, Atoyac de Álvarez","gas_station, point_of_interest, establishment"
10052,26605,Servicios Ecológicos del Mayab S. de R.L. de C.V.,PL/11297/EXP/ES/2015,-88.4215,18.52003,13436,18.73,regular,0,0,Pemex,"Felipe Carrillo Puerto Lote 77 Ejido, Santa Elena","gas_station, point_of_interest, establishment"
10053,26608,SERVICIOS HIDASA SA DE CV,PL/11298/EXP/ES/2015,-89.60638,20.9976,13437,19.34,regular,4.1,29,Pemex,"Calle 31 Por 22 # 211, Mérida","gas_station, point_of_interest, establishment"
10054,26610,COMBUSTIBLES VELARDE ESPINOZA SA DE CV,PL/11299/EXP/ES/2015,-109.0067,25.79753,13439,19.95,regular,0,0,Pemex,"Independencia y, Blvd. Canuto Ibarra Guerrero","gas_station, point_of_interest, establishment"
10055,26613,ESTACION DE SERVICIO GUALUPITA S.A. DE C.V.,PL/11300/EXP/ES/2015,-97.4745,18.5,13440,18.1,regular,5,1,Pemex,"Carrt Km 109+800 Tepanco de Lopez Puebla MX 75800, Carretera Federal Puebla-Tehuacán","gas_station, point_of_interest, establishment"
10056,26616,SERVICIO NUEVO MILENIO SA DE CV,PL/11302/EXP/ES/2015,-106.462,31.730790000000002,13442,12.37,regular,3.7,13,Gasolinera Montemayor,"Montemayor 64, Melchor Ocampo, Cd Juárez","gas_station, point_of_interest, establishment"
10057,26617,GRUPO VIFERCA S.A. DE C.V.,PL/11303/EXP/ES/2015,-100.4296,20.61789,13444,17.67,regular,3.6,20,Gasolinera Pemex,"Av. Felipe Carrillo Puerto 991, Industrial, Santiago de Querétaro","gas_station, point_of_interest, establishment"
10058,26620,GASOLINERA Y SERVICIOS DE LA CRUZ S DE RL DE CV,PL/11305/EXP/ES/2015,-103.6178,25.876179999999998,13448,16.7,regular,4,7,Gasolinera Pemex,"Avenida Ferrocarril No. 45 Sur, Centro","gas_station, point_of_interest, establishment"
10059,26623,MARIA DE LA GRACIA CONSUELO PEREZ ZURITA,PL/11306/EXP/ES/2015,-97.35175,19.82343,13449,18.49,regular,4,117,Estacion Chignaulingo,"A Nautla 404, Novena del Carmen, Barrio de Chignaulingo, Teziutlán","gas_station, point_of_interest, establishment"
10060,26626,GRUPO OS LA PALMA SA DE CV,PL/11308/EXP/ES/2015,-100.0068,25.5594,13452,17.9,regular,3.7,19,PEMEX,"Carretera Cadereyta-Allende Km. 2, Hacienda San Bartolo, Cadereyta Jiménez","gas_station, point_of_interest, establishment"
10061,26629,Consejo Tacuates SA de CV,PL/11309/EXP/ES/2015,-97.99183000000001,16.75846,13453,19.65,regular,3.5,16,Pemex,"Venustiano Carranza # 735, Zacatepec, Santa María Zacatepec","gas_station, point_of_interest, establishment"
10062,26632,SERVICIO EL ROBLE SA DE CV,PL/11310/EXP/ES/2015,-89.53293000000001,20.93742,13454,18.49,regular,4.1,91,pemex,Kanasín,"gas_station, point_of_interest, establishment"
10063,26635,SERVICIO EL ROBLE SA DE CV,PL/11311/EXP/ES/2015,-89.53568,20.93711,13460,18.49,regular,4.1,119,Pemex,"Km. 10+150, Merida - Peto, Sc, Kanasín","gas_station, point_of_interest, establishment"
10064,26638,"S.C. COMBUSTIBLES, S.A. DE C.V.",PL/11312/EXP/ES/2015,-101.0283,20.33571,13461,18.99,regular,4.5,4,Pemex,"Miguel Hidalgo Sur # 235, Jaral del Progreso","gas_station, point_of_interest, establishment"
10065,26641,RIVAR DE APATZINGAN MICH SA DE CV,PL/11313/EXP/ES/2015,-102.3656,19.09104,13462,19.37,regular,3.4,11,PEMEX-7831,"5 de Mayo, José María Morelos, Apatzingán de la Constitución","gas_station, point_of_interest, establishment"
10066,26643,GASOLINERIA PACIFICO S.A DE C.V,PL/11315/EXP/ES/2015,-104.2853,19.08222,13466,18.65,regular,3.7,17,Gasolinera del Pacifico,Manzanillo,"gas_station, point_of_interest, establishment"
10067,26646,"GASOLINAS ZU DE BC, S.A.P.I. DE C.V.",PL/11316/EXP/ES/2015,-117.0558,32.39014,13467,18.79,premium,4,29,Chevron,"Carretera Libre Tijuana-Ensenada 5476, Independencia, Rosarito","gas_station, point_of_interest, establishment"
10068,26649,"DISTRIBUIDORA DE COMBUSTIBLES KARZO, S. DE R.L. DE C.V.",PL/11317/EXP/ES/2015,-97.54163,25.82657,13468,15.35,regular,3.9,47,KARZO GASOLINERIA,"Cabras Pintas, Matamoros","gas_station, point_of_interest, establishment"
10069,26652,ANTONIO ESCALERA CACHO,PL/11318/EXP/ES/2015,-102.4867,19.62069,13469,19.18,regular,0,0,Gasolinera San Juan de Dios,Los Reyes,"gas_station, point_of_interest, establishment"
10070,26655,ONZA LOGISTICA S.A. DE C.V.,PL/11319/EXP/ES/2015,-116.7358,32.51318,13470,17.49,regular,3.3,53,Eco Gasolineras,"Paseo Del Campo, Villa del Campo, La Presa Rural","gas_station, point_of_interest, establishment"
10071,26658,"PESAMA, S.A. DE C.V.",PL/11320/EXP/ES/2015,-99.17106,19.664460000000002,13472,17.99,regular,3.8,6,Gasolinera La Joya,"La Joya 11, El Paraiso, Cuautitlán","gas_station, point_of_interest, establishment"
10072,26661,RUBEN CUELLAR SAAVEDRA,PL/11321/EXP/ES/2015,-98.3706,17.58444,13473,20.25,regular,3.6,11,Estacion De Servicio Gasolineria La Villita,Guerrero,"gas_station, point_of_interest, establishment"
10073,26664,SERVICIO CALIMAYA S.A. DE C.V.,PL/11322/EXP/ES/2015,-99.5378,19.19368,13474,18.35,diesel,3.5,26,Pemex,"Carret. Stgo. Tianguistengo-Chapultepec, Calimaya","gas_station, point_of_interest, establishment"
10074,26667,Gasolinera Faza SA de CV,PL/11323/EXP/ES/2015,-103.45700000000001,25.61411,13475,18.94,regular,4.2,20,Puntogas,"Carr. Gómez Palacio, Fco. I. Madero Km. 7, Jabonoso, Gómez Palacio","gas_station, point_of_interest, establishment"
10075,26670,FRANCISCA MUÑOZ TARANGO,PL/11324/EXP/ES/2015,-105.3641,25.947,13476,19.17,regular,3.7,7,Pemex,"Mina Numero 6, Centro, Santa María del Oro","gas_station, point_of_interest, establishment"
10076,26673,JOSE RODRIGO ZORRILLA RODRIGUEZ,PL/12577/EXP/ES/2015,-97.80199,19.23301,13477,17.99,regular,4.7,3,Pemex,Km 51 Carretera Puebla-Oriental,"gas_station, point_of_interest, establishment"
10077,26676,"SERVICIO SANTA GERTRUDIS, S.A. DE C.V.",PL/12578/EXP/ES/2015,-100.26700000000001,22.33663,13478,18.99,regular,3.7,20,PEMEX,"Carr Villa Juares-Cerritos Km 11, Villa Juárez","gas_station, point_of_interest, establishment"
10078,26679,MULTISERVICIOS EN COMBUSTIBLE MAYE DE VERACRUZ,PL/12579/EXP/ES/2015,-96.08258000000001,18.117420000000003,13480,20.2,diesel,3.9,13,Gasolinera Pemex,"Francisco Gomez No. 62, San Juan Bautista Tuxtepec","gas_station, point_of_interest, establishment"
10079,26682,"AUTOSERVICO TEPATLAX, S.A. DE C.V.",PL/12580/EXP/ES/2015,-97.96824000000001,19.09317,13481,16.99,regular,3.7,27,Mobil,"Carr. Amozoc - Texihutlan Km. 9, No. 650, Tepatlaxco de Hidalgo","gas_station, point_of_interest, establishment"
10080,26685,SERVICIO BORUNDA SA DE CV,PL/12581/EXP/ES/2015,-106.008,28.698109999999996,13482,17.49,regular,4,2,Pemex,Chihuahua,"gas_station, point_of_interest, establishment"
10081,26687,ROBERTO UGALDE GUILLEN,PL/12582/EXP/ES/2015,-98.90420999999999,22.55136,13483,15.5,regular,0,0,Pemex,"Carrt. El Abra-Los Aztecas Km 15, El Mante","gas_station, point_of_interest, establishment"
10082,26689,"COMBUSTIBLES APASEO, S.A. DE C.V.",PL/12583/EXP/ES/2015,-100.6839,20.551560000000002,13484,19.29,regular,3.8,28,Gasolinera Pemex,"Juan Aldama 431, Casas Blancas, Apaseo el Grande","gas_station, point_of_interest, establishment"
10083,26692,"SERVICIO CAÑERO, S.A. DE C.V.",PL/12584/EXP/ES/2015,-103.6115,20.51735,13485,18.65,regular,3.9,120,El Crucero,"Calle Morelos No. 1 Degollado, San Isidro Mazatepec","gas_station, point_of_interest, establishment"
10084,26695,ESTACION DE SERVICIO DORAMAR S.A. DE C.V.,PL/12585/EXP/ES/2015,-98.07024,16.35388,13486,19.2,regular,0,0,Pemex,"Carr.Cost.del Pacifico Pinotepa-Acapulco Km 2 #530, Pinotepa Nacional","gas_station, point_of_interest, establishment"
10085,26698,ESTACION DE SERVICIO PEÑALONSO S.A. DE C.V.,PL/12586/EXP/ES/2015,-97.92857,16.33222,13487,19.2,regular,3.2,17,Gasolinera Pemex,"Carr. Costera del Pacífico #001, Progreso, San Andrés Huaxpaltepec","gas_station, point_of_interest, establishment"
10086,26701,"GASYDISEL DE LEON, S.A. DE C.V.",PL/12587/EXP/ES/2015,-101.6845,21.06878,13488,18.29,regular,4.1,23,Gasydisel de León S.A. de C.V.,"Boulevard Ciudad Industrial 102, Ciudad Industrial, León","gas_station, point_of_interest, establishment"
10087,26704,"SERVICIO LA LOMITA, S.A. DE C.V.",PL/12588/EXP/ES/2015,-103.6961,20.57103,13490,18.89,regular,4.2,9,Gasolinera Pemex,"Calle Juan de la Barrera No. 1, Chapultepec, Tala","gas_station, point_of_interest, establishment"
10088,26707,OPERADORA URLO SA DE  CV,PL/12590/EXP/ES/2015,-101.3794,20.650270000000003,13493,18.65,regular,3.8,24,Gasolinera Valle Verde,"Calle Mariano Abasolo 3190, Purisima de las Flores, Irapuato","gas_station, point_of_interest, establishment"
10089,26709,"GASOMICH LA HACIENDA, S.A. DE C.V.",PL/12591/EXP/ES/2015,-101.3132,19.68668,13494,16.88,regular,3.8,87,GASOMICH La Hacienda,Morelia,"gas_station, point_of_interest, establishment"
10090,26712,"SERVICIO SANTA GERTRUDIS, S.A. DE C.V.",PL/12592/EXP/ES/2015,-100.302,22.44295,13495,18.62,regular,4.4,16,Gasolinera Pemex,"Boulevard Manuel Gomez Morin Km. 1.14 Poniente, Aurora, Cerritos","gas_station, point_of_interest, establishment"
10091,26715,Reflex S.A. de C.V.,PL/12593/EXP/ES/2015,-100.3329,25.671860000000002,13498,19.09,regular,3.8,49,Gasolinera Pemex,"Av. Venustiano Carranza N 699, Maria Luisa, Centro, Monterrey","gas_station, point_of_interest, establishment"
10092,26717,SUPER SERVICIO CIBRIAN SA DE CV,PL/12594/EXP/ES/2015,-104.5763,19.23328,13499,18.75,regular,3.7,46,Pemex,"Manzanillo - Puerto Vallarta 606, Centro, Cihuatlán","gas_station, point_of_interest, establishment"
10093,26720,Reflex Revolucion S.A. de C.V.,PL/12595/EXP/ES/2015,-100.2775,25.654220000000002,13500,18.79,regular,3,2,Gasolinera Pemex,"Av. Revolución N 2555, Ladrillera, Monterrey","gas_station, point_of_interest, establishment"
10094,26722,VICENTE MUÑOZ SALAS,PL/12596/EXP/ES/2015,-98.4732,19.7308,13501,18.49,regular,3,2,Pemex,"Kilometro 3.5, Carretera, Apan","gas_station, point_of_interest, establishment"
10095,26725,MULTISERVICIOS LA LOMITA SA DE CV,PL/12597/EXP/ES/2015,-102.556,22.94029,13503,18.35,regular,4,8,Pemex,Carrt. Santa Monica-Pozo de Gamboa Km 37+000,"gas_station, point_of_interest, establishment"
10096,26728,COMERCIALIZADORA ANGAHUAN S. DE R.L. DE C.V.,PL/12598/EXP/ES/2015,-102.2156,19.54841,13504,17.8,regular,3.9,39,PEMEX,"Carr. Uruapan-Angahuan #2500, omunidad Indigena de Angahuan,, Uruapan","gas_station, point_of_interest, establishment"
10097,26730,"SERVICIOS GASOLINEROS DE MEXICO, S.A. DE C.V.",PL/12599/EXP/ES/2015,-103.5201,25.57365,13506,19.59,diesel,0,0,Pemex,"Libram. Gomez-Lerdo Km.9.5 No.347, Gómez Palacio","gas_station, point_of_interest, establishment"
10098,26733,"SERVICIOS GASOLINEROS DE MEXICO, S.A. DE C.V.",PL/12600/EXP/ES/2015,-100.3423,25.716910000000002,13507,19.3,regular,3.4,14,Gasolinera Pemex,"Av Rodrigo Gómez No. 1445, Central, Monterrey","gas_station, point_of_interest, establishment"
10099,26736,ADRIAN GARCIA VILLAREAL,PL/12601/EXP/ES/2015,-98.24344,26.01418,13508,20.49,diesel,3.7,3,Gasolinera Pemex,"La Joya Fracc, Villa Diamante, Reynosa","gas_station, point_of_interest, establishment"
10100,26739,RAMON ANDUJO MARIN,PL/12602/EXP/ES/2015,-107.0229,29.178559999999997,13509,18.82,regular,3.8,36,El Pino Service,"carretera, Namiquipa","gas_station, point_of_interest, establishment"
10101,26742,"UNION SERVICIOS PROFESIONALES, S.A. DE C.V.",PL/12603/EXP/ES/2015,-99.33579,19.900570000000002,13510,19.42,regular,3.9,16,"Gasolinera ""La unión""","San Mateo 1ra, Tepeji","gas_station, point_of_interest, establishment"
10102,26745,Estación de Servicio Costa Baja SA de CV,PL/12604/EXP/ES/2015,-110.3053,24.21898,13511,21.18,premium,5,1,Pemex,"Carr. a Pichilingue Km. 7.5, Zona Industrial, La Paz","gas_station, point_of_interest, establishment"
10103,26746,SERVICIO PARA GASOLINERAS GRAN MECA S.A. DE C.V.,PL/11325/EXP/ES/2015,-97.345,18.33638,13512,14.6,regular,3.6,5,Tikac,"Segunda, San Gabriel Chilac","gas_station, point_of_interest, establishment"
10104,26749,"COMBUSTIBLES APASEO, S.A. DE C.V.",PL/11326/EXP/ES/2015,-100.5996,20.43372,13514,18.88,regular,4.3,4,Gasolinera Pemex,Carretera-Jerecuaro Km.1+850 38500 Apaseo El Alto Guanajuato MX,"gas_station, point_of_interest, establishment"
10105,26751,"OPERADORA DE MINIESTACIONES COMBUSERV, S.A. DE C.V",PL/11327/EXP/ES/2015,-99.22628,19.6723,13516,18.29,regular,3.8,15,Hidrosina,"Av Chalma S/N, entre Av de las Torres y Av. Chalma, Cuautitlán Izcalli Infonavit Norte, Cuautitlán Izcalli","gas_station, point_of_interest, establishment"
10106,26753,"OPERADORA DE MINIESTACIONES COMBUSERV, S.A. DE C.V",PL/11328/EXP/ES/2015,-99.51754,27.45262,13517,15.25,regular,0,0,Gasolinera Pemex,"Av César López de Lara 2702, San Rafael, Nuevo Laredo","gas_station, point_of_interest, establishment"
10107,26755,PATRICIA LOPEZ FLORES,PL/11329/EXP/ES/2015,-92.3485,16.23315,13518,19.63,regular,5,1,Gasolinera Pemex,"Esquipulas, Calle Octava Álvaro Obregón No. 10, Socoltenango","gas_station, point_of_interest, establishment"
10108,26758,"OPERADORA DE MINIESTACIONES COMBUSERV, S.A. DE C.V",PL/11330/EXP/ES/2015,-99.24284,18.756420000000002,13519,18.59,regular,0,0,Gasolinera Pemex,"Parcela 124 Z I P-1 S/N Ejido De, Alpuyeca","gas_station, point_of_interest, establishment"
10109,26761,"GASOLINERA ALVER, S.A. DE C.V.",PL/11331/EXP/ES/2015,-110.9116,29.12217,13520,20.39,regular,3.7,45,Pemex,"Km 4 Carrt, Internacional A Nogales, Hermosillo","gas_station, point_of_interest, establishment"
10110,26764,"OPERADORA DE MINIESTACIONES COMBUSERV, S.A. DE C.V",PL/11332/EXP/ES/2015,-99.62801,19.30256,13521,18.29,regular,3.7,201,Hidrosina,"Via Alfredo del Mazo, Juan N. Mirafuentes No. 663, Buenaventura, Toluca de Lerdo","gas_station, point_of_interest, establishment"
10111,26766,RODHERGAS S.A. DE C.V. / Num. est. 9911,PL/11333/EXP/ES/2015,-96.18097,19.19526,13522,18.79,diesel,0,0,Etanofuel,"Av Ursulo Galván 654, Tarimoya, Veracruz","gas_station, point_of_interest, establishment"
10112,26767,"OPERADORA DE MINIESTACIONES COMBUSERV, S.A. DE C.V",PL/11339/EXP/ES/2015,-99.18999000000001,19.60449,13523,19.59,regular,3.7,493,Hidrosina,"Autopista Querétaro - México Km 37, Hacienda del Parque, Cuautitlán Izcalli","gas_station, point_of_interest, establishment"
10113,26770,CRUZ GARCIA ASOCIADOS S.A DE C.V.,PL/11334/EXP/ES/2015,-98.43168,16.47651,13524,19.45,regular,4,1,Gasolinera Pemex,"Carretera Federal, Acapulco - Pinotepa Nacional Km.198, Cuajinicuilapa","gas_station, point_of_interest, establishment"
10114,26773,"OPERADORA DE MINIESTACIONES COMBUSERV, S.A. DE C.V",PL/11335/EXP/ES/2015,-99.21115,19.6202,13526,18.99,regular,3.5,4,Pemex,"Miguel Hidalgo No. 24 No. Ext. 9, Cuautitlan Izcalli","gas_station, point_of_interest, establishment"
10115,26775,"OPERADORA DE MINIESTACIONES COMBUSERV, S.A. DE C.V",PL/11336/EXP/ES/2015,-99.52853,27.46357,13528,15.19,regular,0,0,Hidrosina,"Av. Monterrey N° 3848, Mirador, Nuevo Laredo","gas_station, point_of_interest, establishment"
10116,26776,CRUZ GARCIA ASOCIADOS S.A DE C.V.,PL/11338/EXP/ES/2015,-98.44096,16.685679999999998,13529,19.18,premium,3.9,33,Gasolinera,Ometepec,"gas_station, point_of_interest, establishment"
10117,26779,"OPERADORA DE MINIESTACIONES COMBUSERV, S.A. DE C.V",PL/11337/EXP/ES/2015,-102.318,21.909229999999997,13530,17.99,regular,0,0,Pemex,"Avenida Guadalupe Gonzalez, Av. Aguascalientes Pte. Esq, Aguascalientes","gas_station, point_of_interest, establishment"
10118,26782,"OPERADORA DE MINIESTACIONES COMBUSERV, S.A. DE C.V",PL/11340/EXP/ES/2015,-102.2711,21.878429999999998,13531,17.99,regular,4.2,28,Pemex,"Lic. Adolfo López Mateos Ote, Desarrollo Especial Parque IV Centenario, Aguascalientes","gas_station, point_of_interest, establishment"
10119,26784,"LOS CAFETOS DE MONTESALAS, S.A. DE C.V.",PL/11341/EXP/ES/2015,-97.00761999999999,18.92053,13536,17.89,regular,3.6,28,Pemex,"México 143 469, San Jose, Fortín de las Flores","gas_station, point_of_interest, establishment"
10120,26787,FRANCO CESAR RODRIGUEZ HERNANDEZ,PL/12605/EXP/ES/2015,-96.25871,19.21913,13537,18.79,diesel,4.1,8,PeMex,Heroica Veracruz,"gas_station, point_of_interest, establishment"
10121,26788,AUTO SERVICIO INDUSTRIAL S.A. DE C.V.,PL/11342/EXP/ES/2015,-109.5487,31.32896,13538,15.29,regular,3.8,4,Gasolinera ARCO,"INFONAVIT 1, Agua Prieta","gas_station, point_of_interest, establishment"
10122,26790,"SUPER SERVICIOS EL SALTO, S.A. DE C.V.",PL/11343/EXP/ES/2015,-103.1852,20.55746,13540,18.49,regular,4,1,Gasolinera Pemex,"Carretera El Salto - Agua BlanCarretera No. 1380, Agua Blanca, El Salto","gas_station, point_of_interest, establishment"
10123,26793,Autorefinados y Energéticos de Saltillo SA de CV,PL/11344/EXP/ES/2015,-101.0039,25.43617,13541,16.49,regular,3.8,38,Autorefinados Gasolinera,"Blvd. Isidro López Zertuche 1736, Zona Centro, Saltillo","gas_station, point_of_interest, establishment"
10124,26795,NOGALES ENERGETICOS S.A. DE C.V.,PL/12589/EXP/ES/2015,-114.4137,29.79253,13543,20.89,regular,3.9,35,Pemex,Baja California,"gas_station, point_of_interest, establishment"
10125,26798,AUTO SERVICIO SACRAMENTO SA DE CV,PL/11345/EXP/ES/2015,-111.0087,29.1437,13544,19.39,regular,3.9,23,sacramento,"Blvd. Progreso 72, Solidaridad, Hermosillo","gas_station, point_of_interest, establishment"
10126,26800,IRIS ERIKA VAZQUEZ CORTES,PL/11413/EXP/ES/2015,-97.51391,18.81119,13546,16.98,regular,4,7,Combustibles Max,"Autopista Orizaba - Puebla 104, Cuacnopalan","gas_station, point_of_interest, establishment"
10127,26802,ÁNGEL ESTRADA GARZA,PL/11414/EXP/ES/2015,-100.2132,25.67444,13547,18.09,regular,3.9,253,PEMEX,"Av. Benito Juárez, Dos de Junio 2o Sector, Guadalupe","gas_station, point_of_interest, establishment"
10128,26805,"GRUPO PETAGAS, S.A. DE C.V.",PL/11415/EXP/ES/2015,-99.53777,24.8559,13550,19.14,regular,3.7,39,Gasolinera PEMEX,"Av. Las Americas 480, Sin Nombre de Col 4, Linares","gas_station, point_of_interest, establishment"
10129,26808,"OPERADORA DE MINIESTACIONES COMBUSERV, S.A. DE C.V",PL/11416/EXP/ES/2015,-99.23313,19.542839999999998,13551,18.99,regular,0,0,Pemex,"Boulevard Adolfo Lopez Mateos Num. 17 y 37, Cd López Mateos","gas_station, point_of_interest, establishment"
10130,26810,"Estación de Servicio 4 Hermanos, S.A. de C.V.",PL/11417/EXP/ES/2015,-97.89057,22.43269,13553,18.15,regular,5,2,Distribuidora De Combustibles SMG,Altamira,"gas_station, point_of_interest, establishment"
10131,26813,PARADOR HACIENDA NUEVA SA DE CV,PL/11418/EXP/ES/2015,-102.4992,22.74758,13554,18.2,regular,4.5,36,"PARADOR HACIENDA NUEVA, SA DE CV","Sria. de Programacion 8, C.P. 98658, Cieneguitas","gas_station, point_of_interest, establishment"
10132,26816,"OPERADORA DE MINIESTACIONES COMBUSERV, S.A. DE C.V",PL/12606/EXP/ES/2015,-99.55951,27.3755,13555,15.35,regular,3.8,64,Estacion Pemex,"Carretera Nacional Kilómetro 14.5, Nuevo Laredo","gas_station, point_of_interest, establishment"
10133,26819,Grupo Ballo SA de CV,PL/11419/EXP/ES/2015,-103.2337,20.43957,13557,18.54,regular,3.8,108,Pemex,Carretera Antigua Atequiza - La Capilla No. 98 Fracc. Los Laureles,"gas_station, point_of_interest, establishment"
10134,26822,GASOLINERA SIMON BOLIVAR,PL/11420/EXP/ES/2015,-103.2277,24.68618,13558,19.99,regular,,,,,
10135,26824,AUTO SERVICIO LAS QUINTAS S.A. DE C.V.,PL/11421/EXP/ES/2015,-107.3789,24.82027,13559,20.8,regular,4.6,7,Pemex,"Blvd. El Dorado # 1083 Ote, Culiacán Rosales","gas_station, point_of_interest, establishment"
10136,26826,Gasolineras las Adelitas S.A. de C.V.,PL/11422/EXP/ES/2015,-98.7581,19.75088,13560,18.69,regular,3.7,36,Punto De Reunion,Axapusco,"gas_station, point_of_interest, establishment"
10137,26829,ECOENERGETICOS VIZCAYA SA DE CV,PL/11346/EXP/ES/2015,-98.27683,19.23776,13561,18.2,regular,3.8,24,Gasolinera Pemex,"Av.Nativitas San Martin # 2, Tetlatlahuca","gas_station, point_of_interest, establishment"
10138,26831,SERVICIO LOS TOROS SA. DE CV.,PL/11347/EXP/ES/2015,-101.1752,20.147679999999998,13563,18.55,regular,3.6,14,Gasolinera Uriangato,"38980, Juan Aldama 25, Zona Centro, Uriangato","gas_station, point_of_interest, establishment"
10139,26834,"GASOLINERIA PEÑA, S.A. DE C.V.",PL/11348/EXP/ES/2015,-100.0912,25.79861,13564,19.3,regular,0,0,Pemex,Nuevo Leon,"gas_station, point_of_interest, establishment"
10140,26837,GASOLINERIA SAN JUAN DE GUADALUPE,PL/11349/EXP/ES/2015,-102.7806,24.63316,13565,19.99,regular,3.5,6,Gasolinera San Juan de Guadalupe,San Juan de Guadalupe,"gas_station, point_of_interest, establishment"
10141,26839,"YZI AVENTURA LOMAS, S. DE R.L. DE C.V.",PL/11350/EXP/ES/2015,-98.26644,19.00742,13567,17.99,regular,3.2,10,Mobil,"Lateral Sur, Atlixcáyotl No. 5417, San Andrés Cholula","gas_station, point_of_interest, establishment"
10142,26842,"COMBUSTIBLES DE LOS ALTOS, S.A. DE C.V.",PL/11351/EXP/ES/2015,-115.344,32.57224,13568,18.09,regular,4.3,68,Pemex,"San Luis Río Colorado - Mexicali, Pueblo","gas_station, point_of_interest, establishment"
10143,26845,FUENTES OÑATE Y ASOCIADOS SA DE CV,PL/11352/EXP/ES/2015,-102.4533,20.721410000000002,13569,18.8,regular,4.4,5,Pemex,"Cruce.Arandas Tepat.Sc entre Cruce.Sn Miguel Atoto, Arandas","gas_station, point_of_interest, establishment"
10144,26848,ENERGETICOS MAYE SA DE CV,PL/11353/EXP/ES/2015,-96.35779000000001,19.35776,13571,16.97,regular,4.1,11,GAS NIETO,José Cardel,"gas_station, point_of_interest, establishment"
10145,26851,"DAGDUG Y PORTILLA, S.A. DE C.V.",PL/11354/EXP/ES/2015,-91.82668000000001,17.773310000000002,13572,19.69,diesel,3.8,84,Pemex,"Carret Villahermosa-Escarcega Km.136, Palenque","gas_station, point_of_interest, establishment"
10146,26854,"OPERADORA DE ESTACIONES DE SERVICIO VIDA, SA DE CV",PL/11355/EXP/ES/2015,-92.01201,17.711389999999998,13577,17.99,regular,3.9,137,Pemex,"Carrt. Villahermosa-Escarcega Km 114 Margen Dcho, Catazajá","gas_station, point_of_interest, establishment"
10147,26857,SERVICIO PERIFERICO SELNAV S.A DE C.V,PL/11356/EXP/ES/2015,-89.64957,20.89647,13580,18.99,regular,5,1,Gasolinera Pemex,"Dzununcan, 187 Diagonal Manzana 501 No. 299 Secc Cat 25, Mérida","gas_station, point_of_interest, establishment"
10148,26860,UNIDAD DE SERV GASOLINERA EJIDAL SUBTENIENTE LOPEZ,PL/11357/EXP/ES/2015,-88.36908000000001,18.51491,13582,18.99,regular,5,2,Gasomatic Chetumal,"Villahermosa - Chetumal 5132, Milenio, Santa Elena","gas_station, point_of_interest, establishment"
10149,26863,RAMON ORTEGA PEREZ,PL/11358/EXP/ES/2015,-97.0575,20.06166,13583,19.52,regular,3.6,29,Servicio Abasolo,"Mariano Abasolo 401, Centro, Martínez de la Torre","gas_station, point_of_interest, establishment"
10150,26865,KILO REFINADOS SA DE CV,PL/11359/EXP/ES/2015,-100.9788,25.43843,13584,16.59,regular,3.4,26,Pemex,"Calle José María Lafragua 2360, Guanajuato Oriente, Saltillo","gas_station, point_of_interest, establishment"
10151,26867,GASOLINERA LOOC SA DE CV,PL/11360/EXP/ES/2015,-108.4163,25.94533,13585,19.69,regular,5,1,Gasolinera Pemex,"Av. 8 No.97, Ocoroni, Santiago de Ocoroni","gas_station, point_of_interest, establishment"
10152,26870,GASOLINERA DON JOSE SA DE CV,PL/11361/EXP/ES/2015,-103.2917,20.62635,13586,18.21,regular,3.8,496,Pemex Service Station 3404,"Carretera, Guadalajara - Zapotlanejo N 1000, Camichines, San Pedro Tlaquepaque","gas_station, point_of_interest, establishment"
10153,26873,"PETROECONOMIC, S.A. DE C.V.",PL/11957/EXP/ES/2015,-107.4408,24.81583,13587,17.94,regular,4.5,10,Gasolinera,"Blvd. Conquistadores 3949, Culiacán Rosales","gas_station, point_of_interest, establishment"
10154,26875,FRANCISCO ELIZONDO MENDOZA,PL/11362/EXP/ES/2015,-101.0038,22.18819,13589,17.99,regular,3.8,216,Pemex,"Carrt. San Luis-Torreon Km 5.447 # 150, San Luis","gas_station, point_of_interest, establishment"
10155,26877,"ESTACION DE SERVICIO VIA CORTA, S.A. DE C.V.",PL/11363/EXP/ES/2015,-93.20103,18.23038,13590,18.75,regular,3.7,13,INASA,"Calle 18 93, Ampliación Progreso Nacional, Ciudad de México","gas_station, point_of_interest, establishment"
10156,26880,GASOLINERA ALDI SA DE CV,PL/11364/EXP/ES/2015,-103.2193,20.5961,13595,18.82,regular,3.6,12,Gasolinera Aldi,Tonalá,"gas_station, point_of_interest, establishment"
10157,26883,"SERVICIO LAS MOJONERAS, S.A. DE C.V.",PL/11365/EXP/ES/2015,-105.2265,20.67959,13596,18.2,regular,4.2,161,Servicio Las Mojoneras,"Av. México 1571, Parque Las Palmas, Puerto Vallarta","gas_station, point_of_interest, establishment"
10158,26886,"GASOLINERA MARTIN, S.A. DE C.V.",PL/11366/EXP/ES/2015,-103.4368,20.630110000000002,13597,17.89,regular,3.8,491,"Martin petrol station ""PEMEX""","Av, Anillo Perif. Nte. Manuel Gómez Morin 79, El Briseño, Zapopan","gas_station, point_of_interest, establishment"
10159,26889,servicio casitas sa de cv,PL/11367/EXP/ES/2015,-96.80651999999999,20.26205,13599,19.1,regular,4.5,28,Servicio Casitas,"Carretera Nautla-Poza Rica Kilómetro 89.1, Casitas, Tecolutla","gas_station, point_of_interest, establishment"
10160,26892,"MAXI-GASOIL SERVICIOS, S.A DE C.V.",PL/11368/EXP/ES/2015,-96.30038,19.1302,13601,18.7,regular,5,1,BP,"Carretera, Córdoba - Soledad de Doblado Km. 13-300, Mata Loma","gas_station, atm, finance, cafe, food, point_of_interest, establishment"
10161,26895,"SERVICIO CALZAGAS, S.A. DE C.V.",PL/11369/EXP/ES/2015,-99.5537,24.86904,13609,19.14,regular,3.8,8,Gasolinera Pemex,"Modesto Galván C. 1601, Calzada Modesto Galván Cantú, Linares","gas_station, point_of_interest, establishment"
10162,26898,JAIME HUMBERTO NUÑEZ CASTILLO,PL/11370/EXP/ES/2015,-106.4791,28.30627,13610,19.3,regular,4.1,31,Gasolineria PEMEX,Gran Morelos,"gas_station, point_of_interest, establishment"
10163,26900,"SERVICIOS GASOLINEROS DE MEXICO, S.A. DE C.V.",PL/11371/EXP/ES/2015,-102.6536,22.76126,13611,18.79,regular,0,0,Pemex,"Carrt, Guadalajara - Zacatecas Km 306, Zacatecas","gas_station, point_of_interest, establishment"
10164,26903,grupo bazem s. a. de c. v.,PL/11372/EXP/ES/2015,-105.0993,21.19598,13614,19.95,diesel,3.8,187,Pemex,Adolfo López Mateos,"gas_station, point_of_interest, establishment"
10165,26906,Servicio Magusa S.A de C.V.,PL/11373/EXP/ES/2015,-116.0083,30.76254,13615,18.69,regular,5,1,Pemex,"Lotes 3 y 4 Mz-36 Carrt. Transpeninsular # 1213, Ensenada","gas_station, point_of_interest, establishment"
10166,26909,CESAR ARNOLDO RODRIGUEZ BUSTAMANTE,PL/11374/EXP/ES/2015,-104.6863,21.34638,13616,19.9,regular,4.7,3,Gasolinera San Leonel,San Leonel,"gas_station, point_of_interest, establishment"
10167,26912,Servicio Magusa S.A de C.V.,PL/11375/EXP/ES/2015,-115.8652,30.38881,13617,17.75,regular,2.9,13,Pemex,"México 1, Ensenada","gas_station, point_of_interest, establishment"
10168,26915,"SERVICIOS GASOLINEROS DE MEXICO, S.A. DE C.V.",PL/11376/EXP/ES/2015,-100.9999,22.16039,13623,18.79,premium,4.7,3,Pemex,"Prol. Albino García, Los Reyes, San Luis","gas_station, point_of_interest, establishment"
10169,26917,"SERVICIOS GASOLINEROS DE MEXICO, S.A. DE C.V.",PL/11377/EXP/ES/2015,-103.4149,20.694679999999998,13624,19.75,regular,4,191,Gasolinera Oxxo Gas,"Av. Patria 1350, Jardines Universidad, Zapopan","gas_station, point_of_interest, establishment"
10170,26919,"SERVICIOS GASOLINEROS DE MEXICO, S.A. DE C.V.",PL/11378/EXP/ES/2015,-103.4229,20.650679999999998,13625,19.45,diesel,3,3,Gasolinera Pemex,"Av. Patria No. 1543, Mirador del Sol, Zapopan","gas_station, point_of_interest, establishment"
10171,26922,"SERVICIOS GASOLINEROS DE MEXICO, S.A. DE C.V.",PL/11379/EXP/ES/2015,-105.4875,28.187690000000003,13626,18.59,diesel,0,0,Pemex,"Av. Septima Pte. No. 1503, Poniente, Delicias","gas_station, point_of_interest, establishment"
10172,26925,MONICA SANABRIA MANJARREZ,PL/11380/EXP/ES/2015,-98.7511,18.49908,13628,18.83,regular,3.4,11,Pemex,"Independencia # 55, Progreso, Axochiapan","gas_station, point_of_interest, establishment"
10173,26928,GRUPO GASOLINERO HEROES POTOSINOS SA DE CV,PL/11381/EXP/ES/2015,-99.99773,21.9334,13629,17.75,regular,0,0,González Rangel Rodolfo,"Francisco I. Madero 112, Zona Centro, Rioverde","gas_station, point_of_interest, establishment"
10174,26931,COMBUSTIBLES AUTOMOTORES SANTA RITA SA DE CV,PL/11382/EXP/ES/2015,-99.93536,21.91368,13630,17.75,regular,3.8,45,Gasolinera Combustibles Automotores 8881,"Rioverde - Cdad. Valles, Rioverde","gas_station, point_of_interest, establishment"
10175,26934,"ESTACION DE SERVICIO RAYONES, S.A. DE C.V.",PL/11383/EXP/ES/2015,-100.0722,25.01473,13631,18.79,diesel,1,1,Pemex,Rayones,"gas_station, point_of_interest, establishment"
10176,26936,GAS TELCHAC SA DE CV,PL/11384/EXP/ES/2015,-89.30665,21.33993,13633,19.34,regular,4.2,6,Pemex,"Puerto de Abrigo, Telchac Puerto","gas_station, point_of_interest, establishment"
10177,26937,"SERVICIO RC, S.A. DE C.V.",PL/11385/EXP/ES/2015,-98.34031999999999,24.46815,13636,18.79,diesel,4,1,Combustibles Camino Real S. de R.L.,"Camino Real 1, Heroica Matamoros","gas_station, point_of_interest, establishment"
10178,26938,SUPER SERVICIO LOS LIMONES SA DE CV,PL/11386/EXP/ES/2015,-102.3486,19.07394,13639,19.39,regular,3.7,38,PEMEX-5215,"22 de Octubre, Los Limones, Apatzingán de la Constitución","gas_station, point_of_interest, establishment"
10179,26940,J CLEMENTE LABRA SANCHEZ,PL/11387/EXP/ES/2015,-99.33091,20.75611,13640,18.85,diesel,3.6,19,Gasolinera San Pedro,Zimapan,"gas_station, point_of_interest, establishment"
10180,26943,MAXIMIANO ALVAREZ AMADOR,PL/11388/EXP/ES/2015,-111.3015,24.49053,13644,20.4,regular,,,,,
10181,26945,LUCIA CARDONA AGUILERA,PL/11389/EXP/ES/2015,-101.7143,20.14731,13645,19.85,regular,3.4,36,PEMEX,"Carretera Puruandiro-Zinaparo Km.21, Angamacutiro","gas_station, point_of_interest, establishment"
10182,26948,SERVICIO TONALIZONTLA SA DE CV,PL/11390/EXP/ES/2015,-99.26473,19.038629999999998,13646,19.25,regular,3.8,52,Servicio Tonalizontla S.A de C.V,"Km. 3 Carretera Huitzilac A 3 Marias Col, Centro, Huitzilac","gas_station, point_of_interest, establishment"
10183,26951,Enermayab S.A de C.V.,PL/11391/EXP/ES/2015,-89.50811,20.90551,13650,19.06,regular,3.7,16,Gasolinera Pemex,Carretera 184 Merida-Chetumal Tramo Teya. Tab. 16431-A Km 2.16,"gas_station, point_of_interest, establishment"
10184,26954,SEFERINO GANDARA VARELA,PL/11392/EXP/ES/2015,-104.4771,24.78799,13651,19.5,regular,4.3,13,Pemex Gas Station,"Carretera Francisco I.Madero A San Juan Del Rio Km. 1 S/N, San Juan del Río","gas_station, point_of_interest, establishment"
10185,26957,SUPER SERVICIO NUEVO BC SA DE CV,PL/12607/EXP/ES/2015,-97.39012,20.25798,13653,17.83,regular,4.8,5,Gasolinera,"Centenario, Centro, Espinal","gas_station, point_of_interest, establishment"
10186,26959,"Estacion Custodia, S.A. de C.V.",PL/11393/EXP/ES/2015,-102.2973,21.91797,13656,18.58,regular,4,3,Gasolinera Pemex,"Av Independencia 1839-D, Trojes de Alonso, Aguascalientes","gas_station, point_of_interest, establishment"
10187,26961,GONZALO DE LA VEGA HERNANDEZ,PL/11394/EXP/ES/2015,-114.7774,32.47898,13657,14.49,regular,4.2,19,Gasolinera Pemex,"Calle 6ta 466, Comercial, San Luis Río Colorado","gas_station, point_of_interest, establishment"
10188,26962,SUPER SERVICIO NUEVO BC SA DE CV,PL/11395/EXP/ES/2015,-99.76646,18.91777,13658,18.41,regular,3.7,20,Gasolinera Servicio Coatepec,"Prolongación Juárez 315, Coatepec Harinas","gas_station, point_of_interest, establishment"
10189,26965,"SUPER SERVICIO LOS POTRILLOS, S.A. DE C.V.",PL/11402/EXP/ES/2015,-97.44511,20.53864,13659,18.99,regular,3.9,69,Gasolinera Los Potrillos,"Av 20 de Noviembre No. 998, Cazones, Poza Rica de Hidalgo","gas_station, point_of_interest, establishment"
10190,26967,"FERECRES, S.A. DE C.V.",PL/11396/EXP/ES/2015,-98.62337,19.98476,13660,17.44,regular,0,0,Pemex,"Avenida Miguel Aleman No. 2, Epazoyucan","gas_station, point_of_interest, establishment"
10191,26969,GASOLINERA DIAL SA DE CV,PL/11397/EXP/ES/2015,-103.47399999999999,20.53641,13662,18.0,regular,3.9,305,PEMEX,"Av. Adolfo López Mateos Sur No. 8007, Tierra Salada, San Agustín","gas_station, point_of_interest, establishment"
10192,26972,SERVICIOS DUBAI RBG SA ADE CV,PL/11398/EXP/ES/2015,-109.4611,27.080759999999998,13664,19.59,regular,0,0,Gasolinera Pemex,"Avenida Jose Maria Morelos No.1302 Esq, Ramón Corona, Constitucion, Navojoa","gas_station, point_of_interest, establishment"
10193,26975,"SERVICIO REYNOSO MADRIGAL, S.A. DE C.V.",PL/11399/EXP/ES/2015,-103.5798,20.224,13665,18.5,regular,3,2,Petrorey,"San Miguel, Zacoalco de Torres","gas_station, point_of_interest, establishment"
10194,26978,SERVICIO ROMITA SA DE CV,PL/11400/EXP/ES/2015,-101.5323,20.87141,13666,19.55,regular,4,1,Gasolinera Pemex,"Num. 10, Libramiento Norte Romita-Silao Km 0+300, Predio El Maguey, Romita","gas_station, point_of_interest, establishment"
10195,26981,EJIDO OPOPEO,PL/11401/EXP/ES/2015,-101.6211,19.41191,13667,18.9,regular,3.7,76,PEMEX-6976,"Carretera Federal Quiroga-Tepalcatepec Km. 41.56, Sin Colonia, Opopeo","gas_station, point_of_interest, establishment"
10196,26984,MUNICIPIO DE MEXTICACAN,PL/11403/EXP/ES/2015,-102.7896,21.26352,13668,18.8,regular,2.8,12,ESTACION DE CARBURACION MEXTICACAN,Mexticacan,"gas_station, point_of_interest, establishment"
10197,26986,KIARA EDITH BETANCOURT MORENO,PL/11404/EXP/ES/2015,-102.3247,19.05741,13669,19.38,regular,5,1,SERVICE EXPRESS MORENO'S,"22 de Octubre S/N, Apatzingán de la Constitución","gas_station, point_of_interest, establishment"
10198,26989,"GASOLINERA MARTIN, S.A. DE C.V.",PL/11405/EXP/ES/2015,-105.2729,20.7042,13670,18.99,regular,3.9,107,Pemex,"Km 151.5 Carrt. Fed. 200, Tepic - Puerto Vallarta","gas_station, point_of_interest, establishment"
10199,26992,"GASOLINERAS MAS UNO, S.A. DE C.V.",PL/11407/EXP/ES/2015,-101.1875,20.5441,13671,18.79,regular,4,32,Gasolinera Pemex,"Libr. Sur Carretera Km.3+200 36878 Salamanca Guanajuato MX, Valle de Santiago, Celaya","gas_station, point_of_interest, establishment"
10200,26995,ESTACION DE SERVICIOS LA JOYA S.A DE C.V,PL/11406/EXP/ES/2015,-102.3984,20.57991,13672,20.19,diesel,0,0,Pemex,"Camino a Betania Km 3, Ayotlán","gas_station, point_of_interest, establishment"
10201,26998,BURGOS PLUS GASOLINERAS S.A. DE C.V.,PL/11408/EXP/ES/2015,-98.26525,26.00618,13673,20.49,diesel,4,2,Gasolinera Pemex,"Parque de Alcala # 123, Balcones de Alcalá, Reynosa","gas_station, point_of_interest, establishment"
10202,27001,PETROMUAL SA DE CV,PL/11409/EXP/ES/2015,-106.2369,31.49343,13674,13.0,regular,3.5,4,Pemex,"Km. 43 Carr, Cdad. Juarez - El Porvenir","gas_station, point_of_interest, establishment"
10203,27003,BURGOS PLUS GASOLINERAS S.A. DE C.V.,PL/11410/EXP/ES/2015,-98.33033,26.06225,13675,20.49,diesel,4,1,Gasolinera,"Av Central, Las Cumbres, Reynosa","gas_station, point_of_interest, establishment"
10204,27006,LAMBERTO CASTRO ORTIZ,PL/11411/EXP/ES/2015,-101.5115,20.872139999999998,13677,16.7,regular,3.6,11,Pemex,"Av. Gral. Ignacio Allende 59, Zona Centro, Romita","gas_station, point_of_interest, establishment"
10205,27009,ARNULFO SALAICES VALDEZ,PL/11412/EXP/ES/2015,-106.5216,30.44215,13679,18.0,premium,4.4,14,Gasolinera Parador de Villa,Chihuahua,"gas_station, point_of_interest, establishment"
10206,27012,SERVICIO TEMASCALAPA S.A DE C.V.,PL/11423/EXP/ES/2015,-98.8982,19.8267,13682,18.99,regular,3.7,55,Servicio Temascalapa,"Benito Juárez no 2, Temascalapa Centro, Temascalapa","gas_station, point_of_interest, establishment"
10207,27015,ROQUIS S.A de C.V.,PL/11425/EXP/ES/2015,-111.0337,28.564140000000002,13684,20.1,regular,3.9,37,Pemex,Sonora,"gas_station, point_of_interest, establishment"
10208,27018,ERNESTO MORENO FELIX,PL/11427/EXP/ES/2015,-108.4034,25.626360000000002,13686,19.5,diesel,0,0,Gasolinera Pemex,"Carr. a Bamoa, Guasave","gas_station, point_of_interest, establishment"
10209,27021,Grupo Empresarial AO S.A. de C.V.,PL/11428/EXP/ES/2015,-98.96941,19.35086,13687,17.95,regular,3.7,19,Pemex,Carrt. Fed. Mexico-Puebla Km 19.800,"gas_station, point_of_interest, establishment"
10210,27024,ESTACION DE SERVICIO MARRIVER SA DE CV,PL/11429/EXP/ES/2015,-98.13324,25.997729999999997,13689,14.49,regular,3.8,20,Gasolinera Petro 7,"A. Obregón 209, Octavio Silva, Cd Río Bravo","gas_station, point_of_interest, establishment"
10211,27027,"SERVICIOS GASOLINEROS DE MEXICO, S.A. DE C.V.",PL/11430/EXP/ES/2015,-101.3592,20.67295,13693,18.75,regular,1,1,Gasolinera Pemex,"Calle Av Casimiro Liceaga N 1007, Alvaro Obregon, Irapuato","gas_station, point_of_interest, establishment"
10212,27029,Grupo Petro 8 SA de CV,PL/11431/EXP/ES/2015,-103.2206,20.293110000000002,13695,19.07,regular,4.3,34,Gasolinera,"45906, Hidalgo 75, Riberas del Pilar, Ajijic","gas_station, point_of_interest, establishment"
10213,27032,ESTACION DE SERVICIO EL AGUAJITO S.A. DE C.V.,PL/11436/EXP/ES/2015,-115.7286,31.402279999999998,13698,18.89,regular,3.5,2,Gasolinera Pemex,"Avenida Waycuras, Lázaro Cárdenas No.258, Ensenada","gas_station, point_of_interest, establishment"
10214,27035,"BELLAS ARTES GASOLINERA, SA DE CV",PL/11432/EXP/ES/2015,-115.4606,32.61374,13699,16.4,regular,4.8,8,OXXO GAS,"Calz. Castellón 1519, Hidalgo","gas_station, point_of_interest, establishment"
10215,27037,EJIDO OPOPEO,PL/11433/EXP/ES/2015,-101.6505,19.30474,13701,19.5,regular,4.1,7,Gasolinera Pemex,Víctor Rosales,"gas_station, point_of_interest, establishment"
10216,27040,JUAN CASAOS CANO,PL/11437/EXP/ES/2015,-96.43066999999999,17.29375,13702,19.29,regular,4.7,6,Gasolinera Pemex,"Porfirio Díaz No. 502, Santiago Xiacuí","gas_station, point_of_interest, establishment"
10217,27042,Servicio Espiñeiro SA de CV,PL/11434/EXP/ES/2015,-109.0315,25.81942,13703,19.95,regular,4.5,2,Pemex,Carrt. Mochis-Ahome # 4184 Pte,"gas_station, point_of_interest, establishment"
10218,27045,COMUNIDAD AGRARIA DE OPOPEO,PL/11435/EXP/ES/2015,-101.6049,19.42484,13704,19.0,regular,3.5,39,PEMEX-3241,"Apatzingán - Pátzcuaro, Opopeo","gas_station, point_of_interest, establishment"
10219,27048,COMBUSTIBLES Y LUBRICANTES ROQUI S.A. DE C.V.,PL/11490/EXP/ES/2015,-97.81654,25.67986,13709,17.15,regular,0,0,Pemex,"Av. Lazaro Cardenas y, Aquiles Serdán S/N, Valle Hermoso","gas_station, point_of_interest, establishment"
10220,27051,JORGE AVILA CANO,PL/11469/EXP/ES/2015,-99.02399,19.40896,13711,18.69,regular,4.3,488,bp,"Av. Adolfo López Mateos, Agua Azul, Nezahualcóyotl","gas_station, point_of_interest, establishment"
10221,27053,SONIA YORLLI AVILA LOPEZ,PL/11470/EXP/ES/2015,-98.94306999999999,18.858520000000002,13712,18.65,regular,4,215,bp,"Autopista La Pera, Cuautla - Tepoztlan, Lazaro Cardenas, Cuautla","gas_station, point_of_interest, establishment"
10222,27056,ESTACION DE SERVICIOS EL LETRERO SA DE CV,PL/11471/EXP/ES/2015,-102.1076,18.97738,13713,19.39,regular,3.3,7,PEMEX-7942,Calle Calz. Benito Juárez,"gas_station, point_of_interest, establishment"
10223,27059,MIGUEL MACIAS VARGAS,PL/11472/EXP/ES/2015,-102.7036,19.17326,13714,19.88,regular,4,7,Pemex,"General Francisco J. Múgica 900, Felipe Carrillo Puerto (La Ruana) Las Palmas, Felipe Carrillo Puerto","gas_station, point_of_interest, establishment"
10224,27062,"ENERGETICOS EL GARITON, SA DE CV",PL/11473/EXP/ES/2015,-100.2867,20.631079999999997,13716,16.66,regular,3.8,53,Gasolineria,"El Marques, Santiago de Querétaro","gas_station, point_of_interest, establishment"
10225,27065,"SERVICIOS SALDAÑA, S.A.",PL/11474/EXP/ES/2015,-99.5789,24.86298,13718,19.14,regular,4,29,Pemex,"Km.153+500 Carr.Nacional Tramo Cd.Victoria-Monter, Linares","gas_station, point_of_interest, establishment"
10226,27068,"SERVICIOS SALDAÑA, S.A.",PL/11475/EXP/ES/2015,-99.37266,24.8532,13719,19.14,regular,0,0,Todogas,"Sin Nombre de Col 4, Linares","gas_station, point_of_interest, establishment"
10227,27070,JORGE LUIS CAMPOS HERNANDEZ,PL/11476/EXP/ES/2015,-100.8931,18.60793,13726,19.95,regular,4,32,Pemex,"México 51, Sin Nombre, Huetamo de Núñez","gas_station, point_of_interest, establishment"
10228,27073,SERVICIOS HIDASA SA DE CV,PL/11477/EXP/ES/2015,-89.62646,20.99823,13727,19.34,regular,3.1,18,Gasolinera Pemex,"Calle 37 Diagonal No. 395, Pedregales de Tanlum, Mérida","gas_station, point_of_interest, establishment"
10229,27075,"SERVICIOS GASOLINEROS DE MEXICO, S.A. DE C.V.",PL/11478/EXP/ES/2015,-99.60648,19.28697,13729,18.44,premium,4.3,231,Oxxo Gas Tollocan,"Av. Paseo Tollocan 615, Delegación Sta Ana Tlapaltitlán, Toluca de Lerdo","gas_station, point_of_interest, establishment"
10230,27077,JUAN DOMINGO FRANCISCO LEAÑO REYES,PL/12609/EXP/ES/2015,-104.6808,19.19291,13731,19.05,regular,4.7,3,Pemex,"Paseo Del Pescador S/N, Manzanillo","gas_station, point_of_interest, establishment"
10231,27080,"LAS MEJORES ESTACIONES, S.A DE C.V",PL/11479/EXP/ES/2015,-99.02729000000001,19.58322,13732,19.09,regular,3.4,18,Shell,"Av. Central 225, Ex Rancho Jajalpa, Ecatepec de Morelos","gas_station, convenience_store, food, point_of_interest, store, establishment"
10232,27083,CARLOS ENRIQUE BATARSE MENA,PL/11480/EXP/ES/2015,-100.2304,25.82875,13733,19.35,diesel,4.4,10,Pemex,Santa Rosa,"gas_station, point_of_interest, establishment"
10233,27086,ESTACIONES DE SERVICIO EN TUXTLA S.A. DE C.V.,PL/11481/EXP/ES/2015,-93.13909,16.74663,13735,18.56,regular,3.8,8,Gasolineria,"San José Libramiento, Tuxtla Gutiérrez","gas_station, point_of_interest, establishment"
10234,27088,"SERVICIOS GASOLINEROS DE MEXICO, S.A. DE C.V.",PL/11482/EXP/ES/2015,-102.3161,21.84331,13736,19.49,diesel,4.4,19,Oxxo Gas,"Av Siglo XXI, Villas de San Antonio, Aguascalientes","gas_station, point_of_interest, establishment"
10235,27091,"SERVICIO FACIL DEL SURESTE, S.A. DE C.V.",PL/11483/EXP/ES/2015,-95.75475,18.37228,13737,18.79,regular,3.6,35,Pemex,"Miguel Alemán 230, Los Pinos, Carlos A. Carrillo","gas_station, point_of_interest, establishment"
10236,27093,"OPTIMUS ESTACION DE SERVICIO, S. A. DE C.V.",PL/11484/EXP/ES/2015,-102.3422,21.84806,13739,18.57,regular,3.4,15,Gasolinera Pemex,"Lic. Manuel, Boulevard Siglo Xxi, Calle Prol. Constitución Esq, Gómez Morín, Aguascalientes","gas_station, point_of_interest, establishment"
10237,27095,"SERVICIO FACIL DEL SURESTE, S.A. DE C.V.",PL/11486/EXP/ES/2015,-95.80378,18.37129,13742,18.79,regular,3.9,47,Gasolinera Nora Quintana,"Blvd. San Cristobal 1959, Centro, Cosamaloapan","gas_station, point_of_interest, establishment"
10238,27098,Servicio Gransur SA de CV,PL/11487/EXP/ES/2015,-99.16595,19.30143,13743,18.55,regular,3.8,4,Gasolineria Cualli 10274,"Anillo Perif. Blvd. Adolfo López Mateos 5530, Comuneros Santa Ursula, Ciudad de México","gas_station, point_of_interest, establishment"
10239,27100,SUPER SERVICIO TAXQUEÑA SA DE CV,PL/11958/EXP/ES/2015,-99.15698,19.34344,13745,19.79,premium,3.4,116,Gasolineria PEMEX,"esquina, Av. Pacifico, Av Miguel Ángel de Quevedo Barrio, Barrio del Niño Jesús, Ciudad de México","gas_station, point_of_interest, establishment"
10240,27102,"GLORIMARC, S.A. DE C.V.",PL/11488/EXP/ES/2015,-116.6299,32.57306,13747,16.49,regular,4.1,10,ARCO,"Av. Juarez No. 595, Zona Centro, C.P, Zona Centro, Tecate","gas_station, point_of_interest, establishment"
10241,27105,"SERVICIO PALO ALTO, S.A. DE C.V.",PL/11489/EXP/ES/2015,-101.9694,21.92152,13749,18.9,regular,0,0,Pemex,Carrt. Palo Alto-La Soledad Km 18.5,"gas_station, point_of_interest, establishment"
10242,27107,ROBERTO HURTADO MOJICA,PL/11438/EXP/ES/2015,-99.85603,18.36265,13750,20.35,regular,3.9,102,Gasolinera,"Emiliano Zapata, Teloloapan - Arcelia 70G, Emiliano Zapata","gas_station, point_of_interest, establishment"
10243,27110,"SERVICIO LA PIEDAD, S.A. DE C.V.",PL/11440/EXP/ES/2015,-98.22107,19.04553,13753,18.27,regular,3.8,106,Pemex,"Av 21 Pte N 2329, Águila, Puebla","gas_station, point_of_interest, establishment"
10244,27112,ALEJANDRA DE LA TORRE VERDUZCO,PL/11441/EXP/ES/2015,-99.19836,19.66873,13754,17.88,diesel,3.8,108,Pemex,"Autopista Mexico-Queretaro Km. 37.5 Lote 14 S/N, Cuautitlán Izcalli","gas_station, point_of_interest, establishment"
10245,27115,"SERVICIOS GASOLINEROS DE MEXICO, S.A. DE C.V.",PL/11442/EXP/ES/2015,-101.6474,21.144779999999997,13756,18.85,regular,4.8,5,Oxxo Gas,"Blvd. Juan Alonso de Torres Pte. 1902, Presidentes de Mexico, León","gas_station, point_of_interest, establishment"
10246,27117,"SERVICIOS GASOLINEROS DE MEXICO, S.A. DE C.V.",PL/11443/EXP/ES/2015,-102.3211,21.94962,13759,18.75,regular,4.3,19,PEMEX Santacruz,"Av Siglo XXI 1770, El Llano, Jesús María","gas_station, point_of_interest, establishment"
10247,27120,FELICIANO FEREGRINO HERRERA,PL/11444/EXP/ES/2015,-99.32483,19.99705,13760,15.74,regular,4.2,17,Imperial Gas Tepeji Del Rio,Tepeji,"gas_station, point_of_interest, establishment"
10248,27123,GASOLINERAS CORI SA DE CV,PL/11446/EXP/ES/2015,-107.3803,24.80187,13762,17.69,regular,3.4,9,Renosa,"Calzada H Colegio Militar 148, Benito Juárez, Culiacán Rosales","gas_station, point_of_interest, establishment"
10249,27125,"SERVICIOS GASOLINEROS DE MEXICO, S.A. DE C.V.",PL/11447/EXP/ES/2015,-100.1824,25.7771,13763,19.3,regular,4,37,OXXO,"Eje Metropolitano 48 300, Moderno Apodaca, Cd Apodaca","gas_station, point_of_interest, establishment"
10250,27128,PETROTEP SA DE CV,PL/11445/EXP/ES/2015,-102.7506,20.821720000000003,13764,19.29,regular,4,180,Petrotep,"Blvd. Anacleto Glez Flores Sur 230, Españita, Tepatitlán de Morelos","gas_station, point_of_interest, establishment"
10251,27131,"SERVICIOS GASOLINEROS DE MEXICO, S.A. DE C.V.",PL/11448/EXP/ES/2015,-102.29,21.94953,13765,18.39,regular,3.9,41,Gasolinera Servicio Carrobs Norte,"Aguascalientes - San Francisco De Los Romo 128 Jesús Gómez Portugal, Jesús Gómez Portugal","gas_station, point_of_interest, establishment"
10252,27134,"GASOLINERA Y SERVICIOS LOS SAUCES, S.A. DE C.V.",PL/11449/EXP/ES/2015,-102.7361,20.85014,13768,19.39,regular,3.9,120,Gasolinera y Servicios los Sauces,"San Juan de los Lagos - Tepatitlán de Morelos, Los Sauces","gas_station, point_of_interest, establishment"
10253,27137,"SERVICIO VALLE HIDALGO, S.A. DE C.V.",PL/11450/EXP/ES/2015,-100.5234,19.68676,13769,19.86,premium,5,1,Pemex,61190 Michoacán,"gas_station, point_of_interest, establishment"
10254,27140,"MERCANTIL  VIHESA, S.A. DE C.V.",PL/11451/EXP/ES/2015,-100.4687,19.7028,13771,19.5,regular,3.6,48,PEMEX-5088,"La Parada, Irimbo","gas_station, point_of_interest, establishment"
10255,27143,"SERVICIO INCONRA, S.A. DE C.V.",PL/11452/EXP/ES/2015,-100.9771,25.42685,13774,16.39,regular,3.8,96,Pemex,"Paseo de la Reforma 1936, Miraflores, Saltillo","gas_station, point_of_interest, establishment"
10256,27145,FELIPE GUTIERREZ YAÑEZ,PL/11453/EXP/ES/2015,-103.0314,20.928379999999997,13775,19.84,regular,4,2,Pemex,"Carretera a, Carr. a Cuquio","gas_station, point_of_interest, establishment"
10257,27148,JORGE LUIS CAMPOS HERNANDEZ,PL/11455/EXP/ES/2015,-100.6527,18.38116,13786,16.25,regular,3.6,5,PEMEX,San Lucas,"gas_station, point_of_interest, establishment"
10258,27151,"GASOLINERA ISLAS, S.A. DE C.V.",PL/11456/EXP/ES/2015,-109.94200000000001,27.26264,13790,20.55,regular,3.8,16,Pemex,Lazaro Cardenas No. 602 Ote,"gas_station, point_of_interest, establishment"
10259,27153,"SERVICIO LA NUEVA VICTORIA, S.A. DE C.V.",PL/11457/EXP/ES/2015,-95.26573,18.65483,13792,19.1,regular,2.7,11,Gasolineria Servico la Nueva Victoria S.A de C. V,San Andrés Tuxtla,"gas_station, point_of_interest, establishment"
10260,27155,Gasolinera Faza SA de CV,PL/12608/EXP/ES/2015,-103.7069,24.91774,13794,19.29,regular,3.5,4,Pemex,"Carrt. Durango-Gomez Palacio Km 150.5, Cuencamé","gas_station, point_of_interest, establishment"
10261,27158,"SERVICIO EL NOPAL, S.A. DE C.V.",PL/11458/EXP/ES/2015,-98.83754,19.67706,13798,18.7,diesel,3.6,8,Estación de Servicio Repsol,"Carretera México-Tulancingo Km 25+300 Lado Izquierdo, San Juan Teotihuacan de Arista","gas_station, point_of_interest, establishment"
10262,27161,"ENERGETICOS ZIMAPAN, S.A. DE C.V.",PL/11460/EXP/ES/2015,-99.3345,20.68796,13801,18.49,regular,3.8,4,Gasolinera,México 85,"gas_station, point_of_interest, establishment"
10263,27164,"ENERGETICOS ZIMAPAN, S.A. DE C.V.",PL/11461/EXP/ES/2015,-99.38344000000001,20.73476,13803,18.49,regular,1.3,3,Pemex,"H. Colegio Militar S/N, Zimapán","gas_station, point_of_interest, establishment"
10264,27167,"TECNOGASOLINERA, S.A. DE C.V.",PL/11462/EXP/ES/2015,-98.27457,25.990879999999997,13804,20.49,diesel,4.2,58,Gasolinera Petro-7 PEMEX,"Carrt, Reynosa - San Fernando Km 108, Reynosa","gas_station, point_of_interest, establishment"
10265,27170,"GASOLINERIA LAS TUNAS, S.A. DE C.V.",PL/11463/EXP/ES/2015,-98.88736,19.64957,13805,18.79,regular,3,82,TOTAL Piramides,"AUTOPISTA ECATEPEC-PIRAMIDES KM.17+680, COL. SAN MIGUEL, Xometla","gas_station, point_of_interest, establishment"
10266,27173,"GASOCHALCO, S.A. DE C.V.",PL/11464/EXP/ES/2015,-98.9031,19.26439,13806,18.09,regular,4.5,2,Pemex,"Carretera Chalco-Tlahuac No. 500, Chalco de Díaz Covarrubias","gas_station, point_of_interest, establishment"
10267,27175,"GASOLINERÍA LA MILPA DE CALPULALPAN, S.A. DE C.V.",PL/11465/EXP/ES/2015,-98.65619000000001,19.56922,13807,18.49,regular,4,2,Gasolinera Pemex,"Carretera Los Reyes Mexico Zacatepec Pue Km 48+890 L-Izq, Calpulalpan","gas_station, point_of_interest, establishment"
10268,27178,SERVICIO LA CENTRAL 57 SA DE CV,PL/11466/EXP/ES/2015,-100.9511,23.87846,13814,18.8,regular,3.2,5,Pedraza Gasolina,"Francisco I. Madero, Vanegas","gas_station, point_of_interest, establishment"
10269,27180,CARMEN SANCHEZ AGUILAR,PL/11467/EXP/ES/2015,-96.61775,19.51164,13815,18.37,regular,3.5,17,Pemex,"Carrt. Actopan-Xalapa Km 1 Via El Castillo, Col. Centro, Actopan","gas_station, point_of_interest, establishment"
10270,27183,FACUNDO RODRIGUEZ CASTAÑEDA,PL/11510/EXP/ES/2015,-97.5851,18.58268,13818,18.3,regular,3.2,34,Pemex,"Carrt. Mex.-Tehuacan Km. 229, Tehuacán","gas_station, point_of_interest, establishment"
10271,27186,"SERVICIOS RIO PANUCO, SA DE CV  E03787",PL/11511/EXP/ES/2015,-97.84636,22.21435,13819,17.59,regular,4.4,26,Estaciones de Servicio Nexum,"Calle Tamaulipas 1302, Guadalupe Victoria, Tampico","gas_station, point_of_interest, establishment"
10272,27189,SUPER SERVICIO COSAMALOAPAN SA DE CV,PL/11491/EXP/ES/2015,-94.5454,17.5655,13820,17.31,regular,0,0,DESVIACION HIDALGOTITLAN,Veracruz,"gas_station, point_of_interest, establishment"
10273,27192,EFREN MARTINEZ MORFIN,PL/11492/EXP/ES/2015,-100.3006,20.467679999999998,13821,17.8,regular,3.6,77,Pemex,"Km 17.5, QRO 400, Huimilpan Centro","gas_station, point_of_interest, establishment"
10274,27195,GRUPO GASOLINERO BERISA SA DE CV,PL/12610/EXP/ES/2015,-100.3995,20.53944,13822,17.27,premium,4.1,229,Gasolinera Pemex,"Av Candiles S/N, Colinas del Sol, Candiles","gas_station, point_of_interest, establishment"
10275,27197,"ENERGETICOS DAZA, S.A. DE C.V.",PL/11493/EXP/ES/2015,-97.91019,18.72974,13826,17.15,regular,3.7,9,Gasolinera Pemex,"Camino Real A Tepexi # 3, Barrio San Jose, Molcaxac","gas_station, point_of_interest, establishment"
10276,27200,SUPER SERVICIO DE SANTA SA DE CV,PL/11959/EXP/ES/2015,-102.5637,21.71237,13827,18.9,regular,4,19,Pemex,"Carrt. Villa Hidalgo-Aguscalientes Km 4.7 M-Derech, Villa Hidalgo","gas_station, point_of_interest, establishment"
10277,27203,MEGAENERGETICOS SA DE CV,PL/11494/EXP/ES/2015,-98.17987,26.00902,13828,16.61,diesel,0,0,Gasolinera Eleven,"Reynosa eleven, Reynosa","gas_station, point_of_interest, establishment"
10278,27206,SUPER SERVICIO CAPULTITLAN SA DE CV,PL/11495/EXP/ES/2015,-99.66079,19.24438,13829,17.81,regular,4.1,16,Gasolinera,"Calle Independencia 222, Delegación Capultitlán, Toluca de Lerdo","gas_station, point_of_interest, establishment"
10279,27209,ENERGETICOS LAS PALMAS SA DE CV,PL/11496/EXP/ES/2015,-97.77818,25.93546,13830,15.47,regular,0,0,Petrogas,Ramírez,"gas_station, point_of_interest, establishment"
10280,27212,Panfilo Reveriano Benitez Alcantara,PL/11497/EXP/ES/2015,-99.41295,20.274160000000002,13832,19.05,regular,0,0,PEMEX,"Hidalgo Tula de Allende - Tasquillo, San Antonio","gas_station, point_of_interest, establishment"
10281,27213,"GASINC, S.A. DE C.V.",PL/11498/EXP/ES/2015,-98.93213,19.4954,13836,18.69,regular,3.2,68,Gasolinera Aeropuerto,"Autopista Peñón - Texcoco, Texcoco","gas_station, point_of_interest, establishment"
10282,27216,GRUPO SAENZ MARTINEZ SA DE CV,PL/11960/EXP/ES/2015,-106.669,27.92212,13838,19.98,regular,4.5,18,Gasolinera PEMEX,"Km 2.200 Frente Entronque a Nonoava Cost. Izq, San Francisco de Borja","gas_station, point_of_interest, establishment"
10283,27218,AUTO SERVICIO LAS PAROTAS S.A DE C.V,PL/11499/EXP/ES/2015,-104.3427,19.13251,13840,18.75,regular,3.7,91,Gasolinera Pemex,"Av. de las Rosas S/N, Abelardo L. Rodríguez, Manzanillo","gas_station, point_of_interest, establishment"
10284,27221,GRUPO SAENZ MARTINEZ SA DE CV,PL/11961/EXP/ES/2015,-106.4524,28.18112,13846,19.95,regular,4,1,Gasolinera Pemex,Calle Francisco Villa No. 2 Y Calle Principal,"gas_station, point_of_interest, establishment"
10285,27223,DAVID MARIÑELARENA MARIÑELARENA,PL/11501/EXP/ES/2015,-106.2647,27.525209999999998,13853,16.17,regular,2,1,Gasolinera Pemex,Valle del Rosario S/N,"gas_station, point_of_interest, establishment"
10286,27225,COMBUSTIBLES MIKY SANTA ISABEL S. A. DE C. V.,PL/11502/EXP/ES/2015,-106.3429,28.34696,13854,18.99,regular,5,2,Pemex,"Km. 45 Carret. Libre, Chihuahua - Cuauhtémoc, Santa Isabel","gas_station, point_of_interest, establishment"
10287,27228,SERVICIOS REVOLUCION S.A. DE C.V.,PL/11503/EXP/ES/2015,-107.3658,24.803160000000002,13855,16.99,regular,1,1,Gasolinera Pemex,"Av Revolución 176 Nte, Miguel Hidalgo, Culiacán Rosales","gas_station, point_of_interest, establishment"
10288,27230,CAYETANO DEL BOSQUE ZAMORA,PL/11504/EXP/ES/2015,-99.4836,26.21854,13858,18.79,diesel,4.4,9,Gasolinera Servicio Del Bosque,"Carretera Federal 54, Gral Treviño","gas_station, point_of_interest, establishment"
10289,27231,"GAS CARMONA, S.A. DE C.V.",PL/11505/EXP/ES/2015,-99.22075,18.91518,13859,17.22,regular,3.9,112,Pemex,"Blvd. Gustavo Díaz Ordaz No. 36, Acapantzingo, Cuernavaca","gas_station, point_of_interest, establishment"
10290,27233,COMBUSTIBLES GML SA DE CV,PL/11506/EXP/ES/2015,-101.221,20.61608,13860,18.79,diesel,0,0,OXXO Gas,"Carr. Salamanca - Irapuato Km 98+200, 4to, Salama Fraccionamiento, Rancho Crucita, Salamanca","gas_station, point_of_interest, establishment"
10291,27234,"GAS ANDRE, S.A. DE C.V.",PL/11507/EXP/ES/2015,-98.91311999999999,18.89115,13861,17.79,regular,3.6,81,Gas Andre,"Carret. Mexico-Cuautla Km. 63.5, Pueblo Atlatlahucan, Atlatlahucan","gas_station, point_of_interest, establishment"
10292,27237,MARIA ENRIQUETA GUITRON VELASCO,PL/11508/EXP/ES/2015,-104.7601,20.50609,13862,21.88,regular,3.6,5,GASOLINERA LA JOYA,Jalisco,"gas_station, point_of_interest, establishment"
10293,27240,"GAS LAS LETIS, S.A. DE C.V.",PL/11509/EXP/ES/2015,-99.22102,18.92054,13864,17.22,regular,3.3,4,Pemex,"Av. Cuauhtémoc 97-B, Jacarandas, Cuernavaca","gas_station, point_of_interest, establishment"
10294,27242,"ENERGIA Y SERVICIOS COORDINADOS, S.A. DE C.V.",PL/11513/EXP/ES/2015,-103.4773,25.56469,13865,18.88,regular,0,0,Pemex,"Blvd. Jose Rebollo Acosta # 103 Esq, Calz Lázaro Cárdenas, Gómez Palacio","gas_station, point_of_interest, establishment"
10295,27245,"ENERGIA Y SERVICIOS COORDINADOS, S.A. DE C.V.",PL/11512/EXP/ES/2015,-103.4907,25.576710000000002,13866,18.94,regular,3.9,10,Mi Gasolina Francisco Villa,"Juan Méndez 147, 5 de Mayo, Gómez Palacio","gas_station, point_of_interest, establishment"
10296,27248,"ENERGIA Y SERVICIOS COORDINADOS, S.A. DE C.V.",PL/11514/EXP/ES/2015,-103.5073,25.554029999999997,13867,18.89,regular,3.4,18,Pemex,"Blvd. Miguel Alemán S/N, Villa Jardín","gas_station, point_of_interest, establishment"
10297,27250,EMPRESAS LUEBBERT SA DE CV,PL/11515/EXP/ES/2015,-98.21318000000001,26.01594,13869,14.78,regular,4.1,28,Gasolinería,"Industrial Reynosa, Reynosa","gas_station, point_of_interest, establishment"
10298,27253,SILVIA ESTELA CASTRO GUTIERREZ,PL/11517/EXP/ES/2015,-103.191,25.995929999999998,13870,19.85,regular,4.3,4,El Dorado,Francisco I. Madero,"gas_station, point_of_interest, establishment"
10299,27255,"ENERGIA Y SERVICIOS COORDINADOS, S.A. DE C.V.",PL/11516/EXP/ES/2015,-104.1367,26.53493,13871,19.79,diesel,0,0,Gasolinera Pemex,"Carretera Gomez Palacio - Jimenez, Mapimí 300, Durango","gas_station, point_of_interest, establishment"
10300,27258,"ENERGETICOS Y DERIVADOS DE MUZQUIZ, S.A. DE C.V.",PL/11518/EXP/ES/2015,-101.1356,27.869970000000002,13872,19.69,regular,0,0,Gasolinera Pemex ES5626,"LIBRAMIENTO CARBONIFERA NRTE 375 CARRETERA SABINAS, México 57, Fundadores, Sabinas","gas_station, point_of_interest, establishment"
10301,27261,SERVICIOS AUXILIARES DE SINALOA S.A. DE C.V.,PL/11519/EXP/ES/2015,-107.4145,24.79358,13873,16.99,regular,4.3,28,Gasolinera,"Blvd. Emiliano Zapata 660, Centro Sinaloa, Culiacán Rosales","gas_station, point_of_interest, establishment"
10302,27264,SERVICIOS AUXILIARES DE SINALOA S.A. DE C.V.,PL/11520/EXP/ES/2015,-107.3738,24.78015,13877,16.99,regular,0,0,Pemex,"Av. Patria Acera Pte. # 2079 Esq. Tulipan, Culiacán Rosales","gas_station, point_of_interest, establishment"
10303,27266,"ENERGIA Y SERVICIOS COORDINADOS, S.A. DE C.V.",PL/11521/EXP/ES/2015,-103.4901,25.552960000000002,13878,18.09,premium,4,4,Gasolinera Pemex,"Las Rosas, Gomez Palacio","gas_station, point_of_interest, establishment"
10304,27269,GASOLINERA BRAVO S.A. DE C.V.,PL/11522/EXP/ES/2015,-107.4007,24.78784,13880,16.99,regular,3.6,22,Pemex,"Av. Nicolás Bravo # 1646, Morelos, Culiacán Rosales","gas_station, point_of_interest, establishment"
10305,27271,"ENERGIA Y SERVICIOS COORDINADOS, S.A. DE C.V.",PL/11523/EXP/ES/2015,-103.4602,25.593529999999998,13882,18.94,regular,3.6,62,Gasolinera Pemex,"Circuito, Industrial Durango # 1501, Fracc. Los Cedros, Gómez Palacio","gas_station, point_of_interest, establishment"
10306,27274,"SERVICIO LAS PALMITAS, S.A. DE C.V.",PL/11524/EXP/ES/2015,-103.6013,20.28986,13884,18.5,regular,3,2,Petrorey,JAL 417 13,"gas_station, point_of_interest, establishment"
10307,27277,"GASOLINERA SAN FRANCISCO, S.A. DE C.V.",PL/12611/EXP/ES/2015,-101.8109,18.957520000000002,13885,19.6,regular,4,7,PEMEX-2998,"Revolución Sur, Centro, La Huacana","gas_station, point_of_interest, establishment"
10308,27280,"SERVICIO EL RANCHITO, S.A. DE C.V.",PL/12612/EXP/ES/2015,-101.2079,20.13115,13886,18.55,regular,3.5,67,Pemex,"Prolg. 16 de Septiembre No. 1869, Moroleón","gas_station, point_of_interest, establishment"
10309,27283,"Diésel y Gasolina la Zarca, S.A. DE C.V",PL/12619/EXP/ES/2015,-104.7624,25.78231,13894,19.99,regular,3.9,56,Pemex,Durango,"gas_station, point_of_interest, establishment"
10310,27285,ISRAEL RECHY MARTINEZ,PL/12613/EXP/ES/2015,-97.59931,19.64487,13895,18.2,diesel,3.5,20,Gasolineras Xonacatlan,Acajete-Teziutlán,"gas_station, point_of_interest, establishment"
10311,27288,JOSE LUIS RECHY MARTINEZ,PL/12614/EXP/ES/2015,-97.59862,19.64411,13897,16.56,regular,3.5,20,Gasolineras Xonacatlan,Acajete-Teziutlán,"gas_station, point_of_interest, establishment"
10312,27291,Servicio Magusa S.A de C.V.,PL/12615/EXP/ES/2015,-116.57,31.70075,13898,17.99,regular,0,0,Gasolinera Pemex,"Avenida Juan Aldama No. 201 Ex, Ejido Nacionalista","gas_station, point_of_interest, establishment"
10313,27294,SERVICIOS PERA SA DE CV,PL/12616/EXP/ES/2015,-98.2783,26.03334,13899,18.79,diesel,4.5,8,Gasera,"José López Portillo ÌII, José López Portillo III, Reynosa","gas_station, point_of_interest, establishment"
10314,27295,CAMINO A COCOYOC SA DE CV,PL/12617/EXP/ES/2015,-98.98453,18.88981,13906,18.93,regular,4.1,42,bp,"Calle, Profr. Rómulo F. Hernández, Cocoyoc","gas_station, point_of_interest, establishment"
10315,27298,COMBUSTIBLE DE LOS MOCHIS SA DE CV,PL/12618/EXP/ES/2015,-108.9928,25.78569,13909,20.89,regular,4,15,Realgas,"Blvd. Rosendo G. Castro s/n, Centro, Ahome Los Mochis","gas_station, point_of_interest, establishment"
10316,27301,FERNANDO MURILLO SALGADO,PL/11962/EXP/ES/2015,-107.0941,24.4388,13911,18.84,regular,0,0,Pemex,"Carrt. Internacional Sur Km 56.000 # 506, Culiacán Rosales","gas_station, point_of_interest, establishment"
10317,27304,NOGALES ENERGETICOS S.A. DE C.V.,PL/11964/EXP/ES/2015,-112.26799999999999,27.34375,13915,19.29,regular,3,1,Gasolinera Pemex,"Tramo Municipal Salida Al Norte Km. 0 + 500 Fundidora El Boleo, Heroica Mulegé","gas_station, point_of_interest, establishment"
10318,27306,NOGALES ENERGETICOS S.A. DE C.V.,PL/11963/EXP/ES/2015,-111.3661,26.00735,13916,19.59,regular,3.9,57,Nogales Energeticos S.A de C. V.,"Av. Notri S/N, Ligui, Loreto","gas_station, point_of_interest, establishment"
10319,27309,NOGALES ENERGETICOS S.A. DE C.V.,PL/11965/EXP/ES/2015,-109.7192,23.09926,13917,19.79,regular,0,0,Gasolinera Pemex,"Ernesto, Doctor Ernesto Chánez Chávez No. 712, Amp el Zacatal, Chânes","gas_station, point_of_interest, establishment"
10320,27312,PORFIRIO SANDOVAL SANCHEZ,PL/11966/EXP/ES/2015,-100.2366,19.76379,13919,19.5,regular,0,0,Pemex,Michoacán,"gas_station, point_of_interest, establishment"
10321,27315,"GASOLINERA ESTADIO, S.A. DE C.V.",PL/11967/EXP/ES/2015,-101.4423,26.90033,13920,18.7,regular,4.1,59,PEMEX Combustibles y Lubricantes Saldivar S. de R.L. de C.V.,"Nezahualcóyotl 1328-C, Cd Deportiva, Monclova","gas_station, point_of_interest, establishment"
10322,27317,GRUPO OPERADOR DE MINIGASOLINERAS SA DE CV,PL/11968/EXP/ES/2015,-100.2597,25.7725,13921,17.45,regular,2.5,2,Pemex,"Av. Manuel Herrera # 101, Las Praderas, Cd Apodaca","gas_station, point_of_interest, establishment"
10323,27319,"SERVICIO AVIACION, S.A. DE C.V.",PL/11969/EXP/ES/2015,-101.4514,26.945809999999998,13922,19.0,regular,3.1,12,PEMEX Servicio Aviación S.A. de C.V.,"Blvrd Ejército Nacional, Magisterial, Frontera","gas_station, point_of_interest, establishment"
10324,27321,SERVICIO CARROLO SA DE CV,PL/11970/EXP/ES/2015,-96.76995,19.46659,13923,18.2,regular,4.3,169,GULF PetroMed,"Carr. Xalapa Veracruz Km 18, Villa Emiliano Zapata","gas_station, point_of_interest, establishment"
10325,27324,"SERVICIO SESAMO, S.A. DE C.V.",PL/11971/EXP/ES/2015,-100.2806,25.68306,13924,17.9,regular,4.9,7,Pemex,"Av. Francisco I. Madero 3553, Acero, Monterrey","gas_station, point_of_interest, establishment"
10326,27326,SERVICIO RIOS SALINAS SA DE CV,PL/11972/EXP/ES/2015,-101.4199,20.95563,13927,19.4,regular,3.7,123,Pemex,"Km. 149+400, Silao - Leon, Sin Nombre, Silao","gas_station, point_of_interest, establishment"
10327,27329,SERVICIO RIOS SALINAS SA DE CV,PL/11973/EXP/ES/2015,-101.43,20.95487,13928,19.4,regular,4,3,Pemex,"Libramiento Carret. Silao-Leon Km 1.4, Silao","gas_station, point_of_interest, establishment"
10328,27332,"SERVICIOS GASOLINEROS DE MEXICO, S.A. DE C.V.",PL/11974/EXP/ES/2015,-100.4526,20.61788,13931,19.09,premium,3.9,122,Pemex,"Blvd. Bernardo Quintana 2402, El Arcangel, Santiago de Querétaro","gas_station, point_of_interest, establishment"
10329,27335,"SERVICIO VENADERO, S. A. DE C. V.",PL/11975/EXP/ES/2015,-102.4575,21.88857,13933,18.49,regular,3.7,149,Pemex,Km 17.4 Carrt. Fed. Aguscalientes-Calvillo,"gas_station, point_of_interest, establishment"
10330,27338,"SERVICIO BAJIO DE SAN JOSE, S.A. DE C.V.",PL/11976/EXP/ES/2015,-102.1079,21.67533,13934,18.6,regular,3.5,6,TOTAL Bajío de San José,"el bajio de San jose, El Tecuan, Bajío de San José","gas_station, point_of_interest, establishment"
10331,27340,"SERVICIO ISALSO, S.A. DE C.V.",PL/11977/EXP/ES/2015,-102.2731,22.09369,13935,18.28,regular,3.5,8,TOTAL Isalso,"Carret. Aguascalientes-Zacatecas, Pabellón de Arteaga","gas_station, point_of_interest, establishment"
10332,27343,"SERVICIO ISAMEL, S.A. DE C.V.",PL/11978/EXP/ES/2015,-102.2749,22.07113,13936,18.2,regular,0,0,Gasolinera Pemex,"No 604-B, Benito Juárez Sur, San José del Barranco, San Francisco de los Romo","gas_station, point_of_interest, establishment"
10333,27346,SALVADOR PARADA LOPEZ VELARDE,PL/11979/EXP/ES/2015,-102.2889,21.99178,13937,18.2,regular,2,3,TOTAL Margaritas,"Carrt.Sn.Antonio D Los Horcones Esq, Carrt.Pan #198, Centro, Jesús Gómez Portugal","gas_station, point_of_interest, establishment"
10334,27349,ENERGETICOS AVENIDA DEL NIÑO SA DE CV,PL/11980/EXP/ES/2015,-97.49159,25.85088,13938,15.35,regular,0,0,Gasolinera Pemex,"Virgo No. 209 Fracc, Satélite, Heroica Matamoros","gas_station, point_of_interest, establishment"
10335,27351,ESTACION DE SERVICIODIVISION DEL NORTE S DERLDECV,PL/11981/EXP/ES/2015,-97.47965,25.86797,13942,15.35,regular,0,0,Pemex,"Div. Del Norte Esq, Roberto Koch Num.39, Heroica Matamoros","gas_station, point_of_interest, establishment"
10336,27353,GEAXLO S.A. DE C.V.,PL/11982/EXP/ES/2015,-102.7368,23.60165,13944,18.82,regular,5,1,Gasolinera Pemex,"Ignacio Allende No. 110, Magisterial, Cañitas de Felipe Pescador","gas_station, point_of_interest, establishment"
10337,27355,ESTACION DE SERVICIO LAS TORRES S.A DE C.V,PL/11983/EXP/ES/2015,-103.381,20.6584,13951,18.78,regular,3.7,65,PEMEX,"Esquina con Avenida Mandarina, Calz. Lázaro Cárdenas 2460, Del Fresno, Guadalajara","gas_station, point_of_interest, establishment"
10338,27357,AUTOGAS LAS ANIMAS S.A. DE C.V.,PL/11984/EXP/ES/2015,-98.23411,19.043979999999998,13952,18.95,regular,3.6,14,Pemex,"Blvrd Atlixco # 3156, Centro Comercial Galería las Animas, Puebla","gas_station, point_of_interest, establishment"
10339,27359,SERVICIO LA LAGUNILLA S.A. DE C.V.,PL/11985/EXP/ES/2015,-99.03071,20.347189999999998,13956,17.25,regular,3.7,25,Gasolinera Lagunilla,"Actopan-Ixmiquilpan 531, Lagunilla","gas_station, point_of_interest, establishment"
10340,27362,AUTI SERVICIO SANTIAGO S.A DE C.V,PL/11987/EXP/ES/2015,-104.3485,19.115920000000003,13973,18.6,regular,3.8,81,Pemex,"Blvd. Costero M.de la Madrid Km.14.5, Minatitlán","gas_station, point_of_interest, establishment"
10341,27365,JORGE ARTURO URIBE LITVAK,PL/11988/EXP/ES/2015,-98.43731,19.696360000000002,13974,18.74,premium,0,0,Gasolinera Pemex,"0, Carretera Estatal Apan-Almoloya Km 1, Apan","gas_station, point_of_interest, establishment"
10342,27368,FARUM SERVICIOS S A DE C V,PL/11989/EXP/ES/2015,-98.6709,20.9856,13976,19.49,regular,0,0,Pemex,Tlanchinol,"gas_station, point_of_interest, establishment"
10343,27371,"AUTOSERVICIOS TECPAN , S.A. DE C.V.",PL/11990/EXP/ES/2015,-100.6301,17.23701,13979,18.8,regular,3.9,53,Gas station Las Tunas,"Carr.Nal.Acapulco-Zihuatanejo Km.106+040 # 2, Técpan de Galeana","gas_station, point_of_interest, establishment"
10344,27374,BEATRIZ EUGENIA QUESADA PEREZ,PL/11991/EXP/ES/2015,-99.21345,19.51299,13980,18.79,regular,4.3,50,bp,"Av Presidente Juárez, Puente de Vigas, Tlalnepantla de Baz","gas_station, convenience_store, food, point_of_interest, store, establishment"
10345,27376,GASOLINERA COMALA S.A. DE C.V.,PL/11992/EXP/ES/2015,-103.7599,19.31939,13982,18.59,regular,4.2,29,Gasolineria Comala,"Venustiano Carranza 160, San Miguel, 28450 San Miguel, Residencial La Huerta, San Miguel, Comala","gas_station, point_of_interest, establishment"
10346,27378,RODOLFO ENRIQUEZ MORENO,PL/11993/EXP/ES/2015,-101.6678,21.11726,13983,18.45,regular,0,0,Guls Calzada,"Calle Calz. de los Heroes 604, Tepeyac, León","gas_station, point_of_interest, establishment"
10347,27381,"SUPER SERVICIO DN ALFONSO, S. DE R.L. DE C.V.",PL/11994/EXP/ES/2015,-104.6501,24.00318,13985,18.5,regular,5,1,Pemex,"Km 1.5, Durango, Mezquital - Durango, Durango","gas_station, point_of_interest, establishment"
10348,27384,SERVICAÑA S.A. DE C.V.,PL/11995/EXP/ES/2015,-103.7171,20.668570000000003,13987,18.8,regular,4.2,25,Gasolinera Servicaña,México 70 14,"gas_station, point_of_interest, establishment"
10349,27387,HR SOL SERVICIOS ADMINISTRATIVOS FONDO 3 S.A DE C.V.,PL/11996/EXP/ES/2015,-99.92577,20.29469,13988,18.59,regular,4.1,83,Pemex,Querétaro,"gas_station, point_of_interest, establishment"
10350,27390,MORATINES SA DE CV,PL/11997/EXP/ES/2015,-108.9972,25.79513,13992,19.99,diesel,3.8,25,Gaso Plus,"Avenida Francisco I. Madero, Blvd. Antonio Rosales 18, Jordán, Los Mochis","gas_station, point_of_interest, establishment"
10351,27393,"ESTACION DE SERVICIO LAS CUMBRES, SA DE CV",PL/11998/EXP/ES/2015,-97.30896,18.71665,13996,15.78,regular,3.4,49,PEMEX,"Avenida Ignacio de la Llave 26, Centro, Acultzingo","gas_station, point_of_interest, establishment"
10352,27396,Energéticos Franco S.A. de C.V.,PL/11999/EXP/ES/2015,-97.55543,25.74427,13999,15.35,regular,4,54,"Autoservicio Hernandez, S.A. De C.V. E.S. 10659","Carr. A Victoria Km 13.5 Col. La tijerita, E.S. 10659, Magna, Premium, Diesel, México 101","gas_station, point_of_interest, establishment"
10353,27399,Energéticos Franco S.A. de C.V.,PL/12000/EXP/ES/2015,-97.48039,25.863229999999998,14001,15.35,regular,0,0,Gasolinera Pemex,"Avenida Accion CiviCarretera No. 127 Trevi$O Zapata, Heroica Matamoros","gas_station, point_of_interest, establishment"
10354,27402,"GRUPO DE GASOLINEROS UNIDOS MI RIU, S.A. DE C.V.",PL/12001/EXP/ES/2015,-96.72984,17.05396,14005,19.3,regular,3.5,98,Pemex,"Carretera a Xocotlan No. 100, Oaxaca de Juárez","gas_station, point_of_interest, establishment"
10355,27405,EL OLIVO DE CD VICTORIA SA DE CV,PL/12002/EXP/ES/2015,-99.10814,23.77216,14007,18.35,regular,4,2,Pemex,"Carrt. Cd. Victoria-Matamoros Km 5+500, Cd Victoria","gas_station, point_of_interest, establishment"
10356,27408,"COMBUSTIBLES ADITIVOS Y SERVICIOS MAGICOS, S. DE R.L. DE C.V.",PL/12003/EXP/ES/2015,-115.4141,32.66182,14008,16.37,premium,4.3,22,Masigas,"Calz. Manuel Gómez Morín 1699, Las Hadas, Mexicali","gas_station, point_of_interest, establishment"
10357,27410,GASOLINERA SABALO SA DE CV,PL/12004/EXP/ES/2015,-97.91708,22.222360000000002,14009,18.05,diesel,4.2,39,Estaciones de Servicio Nexum,"Carretera Tampico Valles s/n Col, Moralillo","gas_station, point_of_interest, establishment"
10358,27413,ROBERTO CARRERA BRUNO,PL/12038/EXP/ES/2015,-99.81866,17.65963,14012,15.91,regular,3,1,Gasolinera Pemex,"Km.1 Carretera Campo De Aviacion A Coatepec De La Escal Loc, Campo de Aviación","gas_station, point_of_interest, establishment"
10359,27416,"SERVICIOS ENERGETICOS ESLI, S.A. DE C.V.",PL/12039/EXP/ES/2015,-102.2167,20.61288,14013,18.87,regular,4,25,Gasolinera Pemex,"Jesus Maria 213, Los Ladrillos, Jesús María","gas_station, point_of_interest, establishment"
10360,27419,SERVICIO DEL CENTRO DE RAFAEL LARA GRAJALES S.A. DE C.V.,PL/12620/EXP/ES/2015,-97.80412,19.22718,14015,17.93,regular,4,1,Gasolinera Pemex,"24 de Marzo # 13, Centro, Cd de Rafael Lara Grajales","gas_station, point_of_interest, establishment"
10361,27422,"SERVICIOS GASOLINEROS DE MEXICO, S.A. DE C.V.",PL/12040/EXP/ES/2015,-106.0682,28.64205,14016,18.79,regular,2,1,Pemex,"Calle 27 Num 1000, Chihuahua","gas_station, point_of_interest, establishment"
10362,27424,"Estación de Servicio Pegaso, S.A. de C.V.",PL/12041/EXP/ES/2015,-103.4126,20.63689,14017,18.75,regular,3.6,29,Gasolinera Pemex,"Av. Adolfo López Mateos Sur No. 3201, La Calma, Zapopan","gas_station, point_of_interest, establishment"
10363,27426,"SERVICIOS GASOLINEROS DE MEXICO, S.A. DE C.V.",PL/12042/EXP/ES/2015,-98.08154,22.92279,14018,19.59,diesel,4.4,68,Estacion de Servicio OXXO GAS,"Pedro J. Mendez # 91 Poniente, Zona Centro, Aldama","gas_station, point_of_interest, establishment"
10364,27429,SINERGIA DE ENERGETICOS S.A. DE C.V.,PL/12043/EXP/ES/2015,-98.22344,19.06675,14020,18.04,regular,3.5,45,GASOLINERA LUCE E3122,"Centenario 10, Real del Monte, Puebla","gas_station, point_of_interest, establishment"
10365,27431,GANO S.A. DE C.V.,PL/12044/EXP/ES/2015,-98.15413000000001,24.843510000000002,14021,18.19,regular,0,0,Pemex,"Carret.Cd.Victoria-Matamoros Km. 172.5, San Fernando","gas_station, point_of_interest, establishment"
10366,27432,"SUPER SERVICIO EL CUCHILLO, S.A. DE C.V.",PL/12045/EXP/ES/2015,-99.25352,25.71143,14022,16.0,regular,0,0,Pemex,Carr Reynosa Km. 110_+100,"gas_station, point_of_interest, establishment"
10367,27435,"SUPER SERVICIO EL CUCHILLO, S.A. DE C.V.",PL/12046/EXP/ES/2015,-99.65,25.60727,14023,15.85,regular,4.1,15,Pemex Gas Station,"Boulevard Leandro Rios 206 Nte Comunidad, Altamira, Los Ramones","gas_station, point_of_interest, establishment"
10368,27438,SERVICIO GUADARRAMA S.A. DE C.V.,PL/12047/EXP/ES/2015,-99.93539,18.131510000000002,14025,20.38,regular,4.1,41,Gasolinera,"Constituyentes del 57 503, Nanchicahuite, Apaxtla de Castrejón","gas_station, point_of_interest, establishment"
10369,27441,ALMA ANGELINA VEGA GRIJALVA,PL/12005/EXP/ES/2015,-102.1728,21.00938,14027,18.79,diesel,4.2,21,GASOLINERA MUÑOZ,Tlacuitapa,"gas_station, point_of_interest, establishment"
10370,27442,ERICK MENDOZA HERNANDEZ,PL/12006/EXP/ES/2015,-98.2018,20.38249,14029,19.0,diesel,3.7,30,GASOLINERIA SANTA MARIA TEMASCALAPA,HGO 53,"gas_station, point_of_interest, establishment"
10371,27444,GASOLINERA DE COMPOSTELA S.A. DE C.V.,PL/12007/EXP/ES/2015,-104.9009,21.239179999999998,14031,19.79,regular,4.2,6,Pemex,"Hidalgo 131, Santa Ana, Compostela","gas_station, point_of_interest, establishment"
10372,27446,"GRUPO GASOLINERO TAMPICO, SA DE CV  E10172",PL/12008/EXP/ES/2015,-98.43775,22.82321,14034,18.29,regular,4.2,38,GRUPO GASOLINERO TAMPICO S.A. DE C.V.,"Adolfo López Mateos SN-C SUPER REYES,César López de Lara, González, Tamps., México, Adolfo López Mateos SN-C SUPER REYES, César López de Lara, González","gas_station, point_of_interest, establishment"
10373,27449,EDGAR CUAUHTEMOC CEJA CADENAS,PL/12009/EXP/ES/2015,-100.4884,19.47709,14039,18.89,regular,0,0,Mobil,"Miguel Hidalgo No. 273, Col. La Garita","gas_station, point_of_interest, establishment"
10374,27452,"ALCA ENERGETICA, S.A. DE C.V",PL/12011/EXP/ES/2015,-88.13531,29.6988,14043,18.99,regular,,,,,
10375,27455,Combustibles Y Transportes Morelos,PL/12012/EXP/ES/2015,-101.2166,21.472360000000002,14044,18.5,regular,3.7,110,Gasolinera Morelos,"Belisario Dominguez 412, Centro, San Felipe","gas_station, point_of_interest, establishment"
10376,27458,"SERVICIO MORA DE ZACAPU, S. A. DE C. V.",PL/12013/EXP/ES/2015,-101.7971,19.81322,14045,19.19,regular,0,0,Mobil,"Carr. Mexico - Guadalajara, Km. 399, Zacapu","gas_station, point_of_interest, establishment"
10377,27461,SERVICIO A & J SA DE CV,PL/12014/EXP/ES/2015,-95.53627,18.15609,14047,18.99,diesel,3.9,199,Gasolinera,Isla,"gas_station, point_of_interest, establishment"
10378,27464,COMBUSTIBLES Y LUBRICANTES ROQUI S.A. DE C.V.,PL/12015/EXP/ES/2015,-97.82524000000001,25.666829999999997,14048,17.15,regular,3.8,12,Pemex,"Av. Ing. Santiago Guajardo Barrientos y Carretera 82 S/N, Valle Hermoso","gas_station, point_of_interest, establishment"
10379,27467,SERVICIO GASOLINERO NAVARRETE SA DE CV,PL/12016/EXP/ES/2015,-104.8377,21.46707,14050,18.69,regular,4.4,14,Pemex,"Carr. Guadalajara - Tepic # 5245, Tepic","gas_station, point_of_interest, establishment"
10380,27470,Servicio Toluca SRL de CV,PL/12017/EXP/ES/2015,-99.64395999999999,19.30476,14051,17.85,regular,4.8,4,Servicio La Maquinita,"México 134, Los Ángeles, Toluca de Lerdo","gas_station, point_of_interest, establishment"
10381,27472,"ACEITES Y COMBUSTIBLES DE QUERETARO, S.A. DE C.V.",PL/12018/EXP/ES/2015,-100.2672,20.56135,14052,18.59,diesel,1.8,5,BP,"San Miguel El Colorado-Galindo Carretera los Cues, Km 1-700, Parque del Cimatario","gas_station, atm, finance, cafe, food, point_of_interest, establishment"
10382,27475,PRIMEROGAS S.A. DE C.V.,PL/12019/EXP/ES/2015,-97.62973000000001,16.94898,14054,19.88,regular,0,0,Gasolinera Pemex,"Agencia La Union, Paraje El Moral S/N, Chalcatongo de Hidalgo","gas_station, point_of_interest, establishment"
10383,27478,COMBUSTIBLES MARSAN SA DE CV,PL/12020/EXP/ES/2015,-103.3612,20.65682,14055,17.65,regular,3.9,36,Gasolinera Pemex,"Av. Colon No. 1599 Esq, 2 de Abril, Morelos, Guadalajara","gas_station, point_of_interest, establishment"
10384,27480,"HIDROCARBUROS SANTA ANA, S.A. DE C.V.",PL/12021/EXP/ES/2015,-98.71817,20.085279999999997,14056,17.2,regular,3.9,58,Hydrocarbons Santa Ana,"Libramiento a Palomas km 2 No. 511, Colonia Palma Mocha, Mineral de la Reforma","gas_station, point_of_interest, establishment"
10385,27483,"CYNPER, S.A. DE C.V.",PL/12022/EXP/ES/2015,-99.22704,20.18159,14057,17.9,regular,5,2,Gasolinera Pemex,"Mixquiahuala, Carretera S/N, Cinta Larga, Tlahuelilpan","gas_station, point_of_interest, establishment"
10386,27486,ANSELMA EDHIT HUESCA LAGUNES,PL/12023/EXP/ES/2015,-96.87988,18.86068,14058,17.76,regular,3.8,349,Gasolinera Anselma,"Autopista A Veracruz Km 300+700, Peñuela","gas_station, point_of_interest, establishment"
10387,27489,GASOLINERA SURUTATO SA DE CV,PL/12024/EXP/ES/2015,-107.5586,25.80172,14059,20.12,regular,0,0,Pemex,"Acceso Al Poblado de, Carr. a Surutato N, Badiraguato","gas_station, point_of_interest, establishment"
10388,27492,SERVICIO MECAPALAPA S.A. DE C.V.,PL/12025/EXP/ES/2015,-97.8501,20.52828,14060,19.3,regular,0,0,Gasolinera Pemex,"Carretera-MetlaltoyuCarretera Km.20 73029 Pantepec Puebla MX, Villa Lázaro Cárdenas","gas_station, point_of_interest, establishment"
10389,27494,DEL FER SERVICIOS SA DE CV,PL/12026/EXP/ES/2015,-96.24748000000001,18.53864,14061,18.6,regular,3.7,46,"Gasolinera La Gran Isleta, S.A. de C.V.","Carr Estatal Mata Redonda - Joachín km 20, Joachín","gas_station, point_of_interest, establishment"
10390,27496,"PETROSERVICIOS DE GUASAVE, S.A. DE C.V.",PL/12027/EXP/ES/2015,-108.3579,25.51827,14062,21.86,premium,4.3,74,Gasolinera Grupo EZZA,Guasave,"gas_station, point_of_interest, establishment"
10391,27499,MULTISERVICIOS POVA SA DE CV,PL/12028/EXP/ES/2015,-98.30537,19.48043,14063,16.2,diesel,3.7,37,Pemex,"México-Veracruz Km.114, San Simeón Xipetzinco","gas_station, point_of_interest, establishment"
10392,27501,"HIDROCARBUROS SANTA CATARINA, S.A. DE C.V.",PL/12029/EXP/ES/2015,-98.83879,20.12829,14064,17.4,regular,0,0,Gasolinera Pemex,"Carretera PachuCarretera Actopan No. 2330, SC","gas_station, point_of_interest, establishment"
10393,27504,ADMINISTRADORA Y CONTROLADORA DE CARBURANTES SA DE,PL/12030/EXP/ES/2015,-100.315,25.69079,14065,17.9,regular,4.6,14,A y C de Carburantes,"Av. José María Luis Mora, Obrerista, Monterrey","gas_station, point_of_interest, establishment"
10394,27506,"AUTOSERVICIO BENITEZ, SA DE CV",PL/12031/EXP/ES/2015,-117.05799999999999,32.34258,14066,16.69,regular,3.3,3,PEMEX,"Carr. Transpeninsular 121, Centro Playas, Rosarito","gas_station, point_of_interest, establishment"
10395,27508,Mario Gamboa E Hijos SA,PL/12033/EXP/ES/2015,-93.22457,16.78223,14070,18.62,regular,4.4,13,Pemex,"Carret. Tuxtla-Aeropuerto-Llano San Juan Km. 14, Berriozábal","gas_station, point_of_interest, establishment"
10396,27511,Mario Gamboa E Hijos SA,PL/12034/EXP/ES/2015,-93.26826,16.79777,14072,18.58,regular,3.4,55,Mario Gamboa e Hijos,"Carretera Federal 190 Kilómetro 11 más 500, Centro, Berriozábal","gas_station, point_of_interest, establishment"
10397,27514,"ALEROB ESTACIONES, S.A. DE C.V.",PL/12035/EXP/ES/2015,-117.0336,32.50294,14073,17.89,regular,4.4,13,ARCO,"BLVD. FUNDADORES NO. 4950 COL. VALLE DEL RUBI Col, Valle del Rubi Secc Terrazas, Tijuana","gas_station, point_of_interest, establishment"
10398,27516,Servi Universidad SA de CV,PL/12036/EXP/ES/2015,-98.71581,20.09606,14075,16.86,regular,3.8,4,TOTAL Universidad,"Pachuca-Tulancingo 1000, Abundio Martínez, Pachuca de Soto","gas_station, point_of_interest, establishment"
10399,27518,SERVICIOS CONTRERAS S.A DE C.V,PL/12037/EXP/ES/2015,-101.1505,20.049979999999998,14077,17.89,regular,3.8,14,Pemex,Michoacán,"gas_station, point_of_interest, establishment"
10400,27521,ESTACION DE SERVICIO FLORIDA SA DE CV,PL/12067/EXP/ES/2015,-99.89706,16.86915,14079,19.56,regular,3.3,52,Pemex,"Baja California Esq. Ninos Heroes L-51 y 52 #107, Acapulco de Juárez","gas_station, point_of_interest, establishment"
10401,27523,"GARAGES Y TURISMO, S.A. DE C.V.",PL/12068/EXP/ES/2015,-100.3125,25.6653,14080,15.95,regular,3.7,34,Gasolinera Pemex,"Av Melchor Ocampo N 427 Ote, Centro, Monterrey","gas_station, point_of_interest, establishment"
10402,27525,PARADOR Y SERVICIOS SANTA ROSA S.A. DE C.V.,PL/12069/EXP/ES/2015,-103.2368,20.42075,14082,25.0,regular,5,1,Gasolinera Pemex,"Carr. Guadalajara - Chapala 2501, Arcos Vallarta, Guadalajara","gas_station, point_of_interest, establishment"
10403,27528,JOSE LUIS MAGAÑA GOMEZ,PL/12048/EXP/ES/2015,-101.7211,19.57997,14083,18.11,regular,3.2,21,PEMEX-7858,"Michoacán Erongarícuaro - Chupícuaro, Fraccionamiento Mirador del Lago, Erongarícuaro","gas_station, point_of_interest, establishment"
10404,27530,Gasolineras Express S.A. de C.V.,PL/12049/EXP/ES/2015,-109.5327,31.302459999999996,14084,14.99,regular,4,52,Gasolineras Express SA de CV.,"Bulevar los Apson 2901, Lopez Nogales, Agua Prieta","gas_station, point_of_interest, establishment"
