,index,name,cre_id,Lng,Lat,place_id,gas_price,gas type,Rating,User Ratings,Google_Name,Address,Types
7475,19772,PATRICIA MATA VARGAS,PL/8646/EXP/ES/2015,-99.476,19.1816,9661,18.23,regular,3.7,34,"Pemex gas station, Santiago","Galeana S/N, Santiago Tianguistenco","gas_station, point_of_interest, establishment"
7476,19774,"PISA COMBUSTIBLES, S.A. DE C.V.",PL/8555/EXP/ES/2015,-98.11314,19.46432,9662,17.85,regular,3.8,205,Gasolinera Pemex,"Blvd Ignacio Zaragoza Esq Carretera Apizaco Tlaxcala #31, 5 Seccion Agricola Dolores, Tetla De La Solidaridad","gas_station, point_of_interest, establishment"
7477,19777,"FARMING MULTISERVICIOS, S.A. DE C.V.",PL/8746/EXP/ES/2015,-106.4212,23.24495,9663,18.38,regular,0,0,"Gaspasa Gasolinas, Estación El Mar","Carretera Internacional #3024 Fracc, Isla Residencial, Mazatlán","gas_station, point_of_interest, establishment"
7478,19780,SERVICIO  JUQUILA S.A DE C.V,PL/8502/EXP/ES/2015,-98.31597,19.0389,9664,18.53,regular,2.4,27,Gasolinera San Rafael Comac,"Tonantzintla, M. Hidalgo, San Rafael Comac, San Andrés Cholula","gas_station, point_of_interest, establishment"
7479,19783,Gasolinera Faza SA de CV,PL/8165/EXP/ES/2015,-103.3698,25.6414,9665,18.84,regular,0,0,Pemex,La Concha,"gas_station, point_of_interest, establishment"
7480,19785,combustibles del lago sa de cv,PL/8630/EXP/ES/2015,-103.2897,20.29739,9666,19.19,regular,4,30,Gasolinera Pemex,"Hidalgo Num. 537, Ajijic","gas_station, point_of_interest, establishment"
7481,19787,"SERVICIOS GASOLINEROS DE MEXICO, S.A. DE C.V.",PL/8440/EXP/ES/2015,-100.3087,25.71432,9667,19.3,regular,4.2,128,PEMEX,"Francisco G. Bocanegra esquina con Guerrero s/n, Sin Nombre de Col 20, Monterrey","gas_station, point_of_interest, establishment"
7482,19789,"HIDROSINA PLUS, S.A.P.I. DE C.V.",PL/8253/EXP/ES/2015,-101.198,20.56279,9668,17.99,regular,0,0,Gasolinera Pemex,"Avenida Obregon Sur Cruz C/Domingo, Fernando Lizarde No. 704, El Eden, Salamanca","gas_station, point_of_interest, establishment"
7483,19791,"OGSA, S.A. DE C.V.",PL/8569/EXP/ES/2015,-94.58789,18.00959,9669,18.26,regular,3.9,79,Gasolinera PEMEX,"México 180D, Minatitlán","gas_station, point_of_interest, establishment"
7484,19794,EZEQUIEL GUTIERREZ MARTIN,PL/8505/EXP/ES/2015,-102.6738,20.9428,9670,19.8,premium,3.9,81,Pemex,"Km.100 Carr, Guadalajara - Lagos de Moreno","gas_station, point_of_interest, establishment"
7485,19797,SUPERSERVICIO MARIA S.A. DE C.V.,PL/8380/EXP/ES/2015,-102.4792,19.57721,9671,19.4,regular,3.8,14,Gasolinera SAN Sebastian O SAN Serv SANTA Maria,"60380, Calz Rafael Ochoa de Montaño 429, Héroe de Nacozari, Los Reyes de Salgado","gas_station, point_of_interest, establishment"
7486,19800,"SERVICIOS GASOLINEROS DE MEXICO, S.A. DE C.V.",PL/8432/EXP/ES/2015,-100.8938,25.4455,9672,19.49,diesel,4,45,Oxxo Gas,"Blvd. Jesús Valdez Sánchez 254, El Llano, Saltillo","gas_station, point_of_interest, establishment"
7487,19803,"SERVICIO MIGUEL ANGEL, S. A. DE C. V.",PL/8636/EXP/ES/2015,-99.49882,19.13101,9673,18.4,regular,3.8,82,Pemex,"La Marqueza-Tenango KM 20, Xalatlaco","gas_station, point_of_interest, establishment"
7488,19806,"GRUPO MOLMER, S.A. DE C.V.",PL/8557/EXP/ES/2015,-102.8754,23.18893,9674,18.79,regular,3.8,69,Gasolinera Pemex,"Blvd, Paseo del Mineral Esq, Lomas de Plateros, Fresnillo","gas_station, point_of_interest, establishment"
7489,19809,"CORPORATIVO EMPRENDEDOR DEL NOROESTE, S.A. DE C.V.",PL/8549/EXP/ES/2015,-115.404,32.67113,9675,16.79,regular,3.8,29,Pemex,"Calzada Abelardo L Rodriguez, Pimsa II, Mexicali","gas_station, point_of_interest, establishment"
7490,19812,gasolinera la puerta sa de cv,PL/8155/EXP/ES/2015,-97.6841,20.47651,9676,18.79,regular,3.3,3,Pemex,Km 266.6 Carret. Mexico-Tuxpan,"gas_station, point_of_interest, establishment"
7491,19815,EVERARDO LARA COVARRUBIAS,PL/8698/EXP/ES/2015,-98.96789,19.42536,9677,17.8,regular,3.9,92,Gasolinera,"Av. del Peñon, Tejedores, Chimalhuacán","gas_station, point_of_interest, establishment"
7492,19818,"HIDROSINA PLUS, S.A.P.I. DE C.V.",PL/8499/EXP/ES/2015,-109.0152,25.801660000000002,9678,19.95,regular,4.2,26,"Combustibles y Lubricantes Los Mochis s,a de c,v","Independencia Kilómetro 4.2, Ruben Jaramillo, Los Mochis","gas_station, point_of_interest, establishment"
7493,19820,MANUEL ARTEAGA ALVAREZ,PL/8348/EXP/ES/2015,-100.6296,20.46037,9679,18.99,diesel,4,24,Gasolinera Pemex,"Calle Guadalupe Mandujano 519-501, Manuel Avila Camacho, Apaseo el Alto","gas_station, point_of_interest, establishment"
7494,19823,ABASTECEDORA VERACRUZANA SA DE CV,PL/8769/EXP/ES/2015,-96.11224,19.15928,9680,17.29,regular,4.1,29,Pemex,"Calz. Juan Pablo II, Jardines del Virginia, Veracruz","gas_station, point_of_interest, establishment"
7495,19825,SÚPER SERVICIO 5 MINAS S.A. DE C.V.,PL/8265/EXP/ES/2015,-104.0714,20.77366,9681,18.8,regular,3.8,139,Pemex Service Station # 6314,"Extramuros # 201 Carrt. a, Etzatlán","gas_station, point_of_interest, establishment"
7496,19828,OTHON FELIPE CEJUDO ROMERO,PL/8339/EXP/ES/2015,-98.87326,19.20284,9682,17.73,regular,2.9,8,Pemex,"Carrt.Cedral-Tepetlixpa,Tramo Temamatla-Tenenango, Temamatla","gas_station, point_of_interest, establishment"
7497,19831,Servicio Nainari S.A. de C.V.,PL/8705/EXP/ES/2015,-109.9334,27.46465,9683,19.75,regular,3,1,Servicios y Lubricantes Forgas,"Norman E Bourlaug 6230, La Misión, Cd Obregón","gas_station, point_of_interest, establishment"
7498,19834,"GASOLINERIA FOY DE TUXPAN, SA DE CV.",PL/8695/EXP/ES/2015,-97.39927,20.96686,9684,19.29,regular,4.1,20,Gasolinera El Pescador,"Rosal, Los Pinos, Túxpam de Rodríguez Cano","gas_station, point_of_interest, establishment"
7499,19837,SERVICIO CINCO HERMANOS SA DE CV,PL/8503/EXP/ES/2015,-115.4391,32.59176,9685,17.5,regular,0,0,Gasolinera Pemex,"Avenida, Gral. Santiago Vidaurri S/N, Misión del Ángel, Mexicali","gas_station, point_of_interest, establishment"
7500,19839,JUAN JOSE DE JESUS FLORES ORTIZ,PL/8212/EXP/ES/2015,-104.8994,21.22784,9686,19.79,regular,3.2,6,Pemex,"Av.Prolongacion Hgo.Y Carrt, Chapalilla","gas_station, point_of_interest, establishment"
7501,19842,Servicio Las Arsinas S.A. de C.V.,PL/8624/EXP/ES/2015,-102.3323,22.72266,9687,18.79,diesel,2,1,Pemex,"Km 110+900 Carrt. 45 Panamericana Tramo Zac-Ags, Guadalupe","gas_station, point_of_interest, establishment"
7502,19843,"AUTO SERVICIO LA PIEDRERA, S.A. DE C.V.",PL/8739/EXP/ES/2015,-108.8771,25.78295,9688,19.39,diesel,4.2,9,Pemex,"Carrt. Int Km 192+500 Ahome Sinaloa MX 81255, Culiacán - Los Mochis","gas_station, point_of_interest, establishment"
7503,19846,SERVICIO TERAN TERAN SA DE CV,PL/8533/EXP/ES/2015,-117.0575,32.38409,9689,17.89,regular,3.8,29,Service Station: E11380,"Carretera Libre Tijuana-Rosarito 125, Rosarito","gas_station, point_of_interest, establishment"
7504,19848,GASOLINERA SERVICIO YURECUARO SA DE CV,PL/8359/EXP/ES/2015,-102.26299999999999,20.32858,9690,18.8,regular,4.5,6,Global Gas,"Hidalgo 2, Centro, Yurécuaro","gas_station, point_of_interest, establishment"
7505,19851,"COMBUSTIBLES Y LUBRICANTES AME, S.A. DE C.V.",PL/8281/EXP/ES/2015,-98.19716,23.78216,9691,18.45,regular,4,1,Pemex,"Carrt. Est.Manuel-La Coma Tramo S.La Marina-La Com, Soto la Marina","gas_station, point_of_interest, establishment"
7506,19854,SERVICIO COLÓN S.A. DE C.V.,PL/8678/EXP/ES/2015,-102.4613,22.750339999999998,9692,18.39,regular,2.3,3,Pemex,"Carrt. Aguascalientes-Zacatecas Km 115, Guadalupe","gas_station, point_of_interest, establishment"
7507,19857,SERVICIOS EL ANDARIEGO S.A. DE C.V.,PL/8302/EXP/ES/2015,-98.01246,19.433410000000002,9693,17.99,regular,3.8,30,bp,"Carretera Xaloztoc-Terrant Km. 9-500, Xaloztoc","gas_station, point_of_interest, establishment"
7508,19860,SERVICIO FERNANDEZ HNOS SA DE CV,PL/8263/EXP/ES/2015,-98.90656,17.00548,9694,19.82,regular,4,84,Estación de Servicio San Antonio SA de CV No. 0323,"Carretera Acapulco pinotepa Nacional Km. 165 No. 80 Col. Centro Marquelia Guerrero, Pinotepa Nacional - Acapulco, Marquelia","gas_station, point_of_interest, establishment"
7509,19863,"GASOLINERA IGLUF, S.A. DE C.V.",PL/8294/EXP/ES/2015,-104.5924,25.1458,9695,19.9,premium,0,0,Pemex,"Carr. Panamericana Durango-Parral Km.162, Rodeo","gas_station, point_of_interest, establishment"
7510,19866,"SERVICIOS GASOLINEROS DE MEXICO, S.A. DE C.V.",PL/8422/EXP/ES/2015,-100.9231,25.559820000000002,9696,19.59,diesel,3.9,179,Pemex,"Carr. Monterrey - Saltillo, Zona Industrial, Ramos Arizpe","gas_station, point_of_interest, establishment"
7511,19869,SERVICIO PUEBLA BAPJE SA DE CV,PL/8201/EXP/ES/2015,-98.20746,19.03334,9697,17.7,regular,3.8,30,Gasolinera Pemex,"Av 25 Pte No. 712, Zona Sin Asignación de Nombre de Col 35, Centro, Puebla","gas_station, point_of_interest, establishment"
7512,19872,ESTACION GEMMA OCOTLAN SA DE CV,PL/8618/EXP/ES/2015,-98.26991,19.1403,9698,17.64,regular,3,7,Gasolinera Pemex,"Anillo Perif. Ecológico No. 5, S/C, San Francisco Ocotlán","gas_station, point_of_interest, establishment"
7513,19875,"AUTO SERVICIO LA PIEDRERA, S.A. DE C.V.",PL/8740/EXP/ES/2015,-109.17200000000001,25.920379999999998,9699,20.75,diesel,4,2,Gasolinera Pemex,"Constitucion Y, Olas Altas No. 38, Centro, Ahome","gas_station, point_of_interest, establishment"
7514,19878,ESTACION DE SERVICIO CINCO DE MAYO SA DE CV,PL/8723/EXP/ES/2015,-110.9156,31.297729999999998,9700,16.55,premium,0,0,Grupo Gasolinero Cinco de Mayo,"Bella Vista, Nogales","gas_station, point_of_interest, establishment"
7515,19881,SUPER SERVICIO JUMM SA DE CV,PL/8641/EXP/ES/2015,-103.4857,19.66713,9701,19.45,regular,0,0,Gasolinera Pemex,"Carretera Ciudad Guzman - Autlan Km 3.50 Margen Izquierdo, Zapotlán el Grande","gas_station, point_of_interest, establishment"
7516,19884,SINERGIA DE ENERGETICOS S.A. DE C.V.,PL/8597/EXP/ES/2015,-98.16069,19.074579999999997,9702,18.49,diesel,1.5,2,Amigas Puebla 2000,"CARR. MEXICO-VERACRUZ EX RANCHO DE ORTEGA, Parque Industrial Puebla 2000","gas_station, point_of_interest, establishment"
7517,19887,GRUPO GASOLINERO AZTECA SA DE CV,PL/8159/EXP/ES/2015,-102.4892,19.63099,9703,19.1,regular,0,0,Gasolinera San Juan de Dios,Los Reyes,"gas_station, point_of_interest, establishment"
7518,19890,"CORPORATIVO EMPRENDEDOR DEL NOROESTE, S.A. DE C.V.",PL/8548/EXP/ES/2015,-115.5726,32.622679999999995,9704,16.49,regular,3.8,8,Gasolinera Pemex,"Circuito Antonio Valdez Herrera No. 19 Fracc, Los Milagros","gas_station, point_of_interest, establishment"
7519,19893,"FORZA GAS, S.A. DE C.V.",PL/8270/EXP/ES/2015,-98.29044,19.02609,9705,18.19,regular,3.3,7,TOTAL San Bernardino,"Carretera Federal Puebla Atlixco No 8138, Puebla, San Bernardino Tlaxcalancingo, Tlaxcalancingo","gas_station, point_of_interest, establishment"
7520,19896,"MORONES SERVICIO EXPRESS, S. A. DE C. V.",PL/8521/EXP/ES/2015,-100.2676,25.68013,9706,17.99,regular,3.9,53,PEMEX,"Calle Benito Juárez 905, Centro de Guadalupe, Guadalupe","gas_station, point_of_interest, establishment"
7521,19898,ANGELBERTO LOPEZ JIMENEZ,PL/8488/EXP/ES/2015,-105.4129,22.374570000000002,9707,18.99,regular,4.1,18,Pemex,"Carrt No. 34 Sur, Nayarit San Felipe Aztatán - La Presa","gas_station, point_of_interest, establishment"
7522,19901,GASOLINERA BONFIL S.A. DE C.V.,PL/8513/EXP/ES/2015,-114.9761,32.29387,9708,16.1,regular,4.4,33,Gas station,"Miguel Hidalgo y Costilla, Centro, Ingeniero Luis B. Sánchez","gas_station, point_of_interest, establishment"
7523,19904,SERVIGAS EL MARENGO S.A. DE C.V.,PL/8395/EXP/ES/2015,-102.0403,26.99098,9709,19.3,regular,4.2,73,Pemex,"México 30 1505, Centro","gas_station, point_of_interest, establishment"
7524,19907,"SERVICIOS GASOLINEROS DE MEXICO, S.A. DE C.V.",PL/8200/EXP/ES/2015,-100.3565,25.69741,9710,19.39,regular,4.3,15,OXXO Gas,"Av Paseo de los Leones 1239, Cumbres 1º Sector, Monterrey","gas_station, point_of_interest, establishment"
7525,19909,NUESTRA SEÑORA DEL TEPEYAC S.A. DE C.V.,PL/8227/EXP/ES/2015,-94.55234,18.151329999999998,9711,17.99,regular,0,0,Gasolinera Cuality,"Cd Olmeca, Fraccionamiento Ciudad Olmeca","gas_station, point_of_interest, establishment"
7526,19911,SINERGIA DE ENERGETICOS S.A. DE C.V.,PL/8213/EXP/ES/2015,-98.26746,19.0223,9712,18.14,regular,3.6,11,Shell Perifuel 2,"Anillo Perif. Ecológico 3302, San Andrés Cholula","gas_station, convenience_store, food, point_of_interest, store, establishment"
7527,19914,ESTACION DE SERVICIO CINCO DE MAYO SA DE CV,PL/8720/EXP/ES/2015,-110.9365,31.30327,9713,16.55,premium,3.8,29,Pemex,"5 de Mayo # 106, 5 de Mayo, Nogales","gas_station, point_of_interest, establishment"
7528,19916,GASOLINERA RANCHO NUEVO S.A. DE C.V.,PL/8585/EXP/ES/2015,-97.52866,20.97109,9714,19.15,regular,4.1,66,GASOLINERA RANCHO NUEVO,"Carr. Costera del Golfo 105, Ejido Chapopote","gas_station, point_of_interest, establishment"
7529,19919,"SERVICIO EL ONCE, S.A. DE C.V.",PL/8343/EXP/ES/2015,-98.69574,20.13985,9715,17.35,regular,3.9,265,SERVICIO EL ONCE SA DE CV,"KM 104, Carretera México-Tampico, Casas Quemadas, Mineral del Monte","gas_station, point_of_interest, establishment"
7530,19922,DAVID ARROYO ARROYO,PL/8322/EXP/ES/2015,-102.0677,20.14173,9716,19.69,regular,1.7,3,Gasolinera MGM Churintzio,"KILOMETRO 36 CARRETERA LA PIEDAD, Carapan, Churintzio","gas_station, point_of_interest, establishment"
7531,19925,"SERVICIOS GASOLINEROS DE MEXICO, S.A. DE C.V.",PL/8243/EXP/ES/2015,-100.3035,25.70356,9717,19.3,regular,3.8,26,OXXO Gas,"Av Ruiz Cortinez 720 A OTE, Victoria, Monterrey","gas_station, point_of_interest, establishment"
7532,19928,"AUTOSERVICIO BENITEZ, SA DE CV",PL/8675/EXP/ES/2015,-117.0201,32.52005,9718,17.99,regular,4,31,ARCO,"C.P, Blvd. Agua Caliente No. 9816, Revolucion, Tijuana","gas_station, point_of_interest, establishment"
7533,19931,SUPER SERVICIO HERRERA DEL NORTE SA DE CV,PL/8469/EXP/ES/2015,-106.5227,31.6144,9719,12.49,regular,3,6,H GAS,"Esperanza, Ciudad Juárez","gas_station, point_of_interest, establishment"
7534,19934,E.S.G.E.S. S.A DE C.V,PL/8409/EXP/ES/2015,-91.17598000000001,18.9681,9720,20.29,regular,3.6,37,Gasolinera,"Benito Juárez, Carmen","gas_station, point_of_interest, establishment"
7535,19936,ESTACION DE SERVICIO SANTA TERESA SA DE CV,PL/8463/EXP/ES/2015,-96.35932,18.81381,9721,18.49,regular,3.8,47,Santa Teresa gas station,"Los Robles, Córdoba - Boca del Rio 8319, Los Robles","gas_station, point_of_interest, establishment"
7536,19939,"SERVICIO CHUMATO, S.A. DE C.V.",PL/8418/EXP/ES/2015,-102.8313,20.108420000000002,9722,19.0,regular,3.9,35,PEMEX 6383,"Km., 2 de Abril 22, Centro Cuatro, Sahuayo de Morelos","gas_station, point_of_interest, establishment"
7537,19942,ROSALIO VELAZQUEZ CADEZA,PL/8284/EXP/ES/2015,-96.65831,18.602710000000002,9723,19.49,regular,4,21,Gasolinera Almolonga,"k.m. Carrertera El, Cinco de Mayo 0, Refugio Viejo, Cosolapa","gas_station, point_of_interest, establishment"
7538,19945,"OPERADORA DE ESTACIONES DE GASOLINA, S.A DE C.V.",PL/8702/EXP/ES/2015,-99.52667,19.28634,9724,18.49,diesel,3.6,112,Pemex,"Av. de las Partidas, Parque Industrial, Lerma de Villada","gas_station, point_of_interest, establishment"
7539,19948,SERVICIO CORMA S.A. DE C.V.,PL/8461/EXP/ES/2015,-95.71559,18.07145,9725,18.29,regular,4.1,11,Pemex,"Bosque, Villa Azueta","gas_station, point_of_interest, establishment"
7540,19950,SERVICIO HERNANDEZ GASOLINERA SA DE CV,PL/8708/EXP/ES/2015,-105.664,26.930509999999998,9726,18.35,regular,3.8,24,Pemex,"Calle Carlos Fuero, Noche Triste y, San Nicolás, Hidalgo del Parral","gas_station, point_of_interest, establishment"
7541,19952,SERVICIO COLÓN S.A. DE C.V.,PL/8671/EXP/ES/2015,-102.5819,22.770039999999998,9727,17.89,regular,3.6,170,Pemex,"Miguel Alemán y, Carr.Panamericana, Sierra de Alica, Zacatecas","gas_station, point_of_interest, establishment"
7542,19954,SILVIA KARINA ESPINOZA MEDINA,PL/8331/EXP/ES/2015,-107.3935,24.870179999999998,9728,18.29,regular,4.1,14,Gasolinera Pemex,"Avenida Gral. Alvaro Obregon No.7529 Norte, Loma de Rodriguera, Culiacán Rosales","gas_station, point_of_interest, establishment"
7543,19957,MARIA ESTHER PARRA BLANCO,PL/8512/EXP/ES/2015,-96.58986999999999,19.37367,9729,17.25,regular,3.6,22,PeMex,"Carr. Xalapa Veracruz 76, Coscorrón","gas_station, point_of_interest, establishment"
7544,19960,INMOBILIARIA MONROY RUIZ S.A. DE C.V.,PL/8186/EXP/ES/2015,-99.56969000000001,19.3671,9730,18.11,regular,0,0,bp,"C.P, Carretera Toluca-Naucalpan Villa, Cuauhtémoc Sur N, San Mateo Otzacatipan","gas_station, convenience_store, cafe, food, point_of_interest, store, establishment"
7545,19963,AUTO EXPRESS CALZADA -PERIFERICO S.A. DE C.V.,PL/8486/EXP/ES/2015,-103.3178,20.72043,9731,19.96,regular,4,1,Gasolinera Pemex,"Calz Independencia Nte No. 3875, Ricardo Flores Magón, Guadalajara","gas_station, point_of_interest, establishment"
7546,19965,"SERVICIO PARRILLA, S.A. DE C.V.",PL/8603/EXP/ES/2015,-92.92286,17.89893,9732,17.49,regular,4.1,56,Servicio Parrilla Sa de Cv,"CTRA. VILLAHERMOSA TEAPA KM 13 COL, Parrilla 1ra. Secc., Las Margaritas, Parrilla","gas_station, point_of_interest, establishment"
7547,19968,RAYO GAS S.A. DE C.V.,PL/8545/EXP/ES/2015,-100.8998,22.15492,9733,17.44,premium,3.8,113,Gasolinera Pemex,"Carr. RíoVerde 2204, Fraccionamiento, Soledad de Graciano Sánchez","gas_station, point_of_interest, establishment"
7548,19971,SERVICIO GONZALEZ AVILA SA DE CV,PL/8366/EXP/ES/2015,-99.01494,19.775679999999998,9734,17.7,regular,3,9,Pemex,"Calle Emiliano Zapata, San Juan Pueblo Nuevo","gas_station, point_of_interest, establishment"
7549,19974,VICTOR MANUEL SCHULTZ SOLIS,PL/8160/EXP/ES/2015,-108.5393,27.39902,9735,20.35,regular,0,0,Gasolinera Pemex,Chínipas de Almada,"gas_station, point_of_interest, establishment"
7550,19977,ESTACION DE SERVICIO CINCO DE MAYO SA DE CV,PL/8725/EXP/ES/2015,-110.9408,31.2783,9736,16.55,premium,3.4,34,Gasolinera Pemex,"Av. Nuevo Nogales No. 3041, Industrial, Nogales","gas_station, point_of_interest, establishment"
7551,19979,GASOLINERIA LOS PINOS S.A. DE C.V.,PL/8240/EXP/ES/2015,-99.9997,19.4172,9737,19.2,regular,3.7,62,Gasolinera Los Pinos oxxo gas,Morelia-Toluca 203,"gas_station, point_of_interest, establishment"
7552,19982,SALYMA COMBUSTIBLES SA DE CV,PL/8626/EXP/ES/2015,-100.632,17.2118,9738,18.8,regular,3.7,46,Gasolinera Tecpan,"Zihuatanejo Kilómetro 102, Lindavista, Técpan de Galeana","gas_station, point_of_interest, establishment"
7553,19985,AUTOSERVICIOS AZTLAN SA DE CV,PL/8481/EXP/ES/2015,-103.2719,20.61693,9739,17.9,regular,4.1,133,Gasolinera Pemex,"Av. Tonala, Cd Aztlán, Tonalá","gas_station, point_of_interest, establishment"
7554,19988,"GAS SERVICIO COMERCIAL MONACO, S.A. DE C.V.",PL/8715/EXP/ES/2015,-111.0373,29.0813,9740,19.94,regular,3.4,19,Gasolinera Pemex,"Blvd. Luis Donaldo Colosio M. 987, La Manga, Hermosillo","gas_station, point_of_interest, establishment"
7555,19990,Estación de Servicio Bustamante SA de CV,PL/8718/EXP/ES/2015,-98.80041999999999,19.55254,9741,18.99,regular,3.6,66,Gasolinería Bustamante,"56240, Texcoco-Calpulalpan 122a, Jardines de Sta Ines, San Joaquín Coapango","gas_station, point_of_interest, establishment"
7556,19993,"SERVICIOS GASOLINEROS DE MEXICO, S.A. DE C.V.",PL/8663/EXP/ES/2015,-100.2925,25.79331,9742,19.3,regular,4.5,2,Comesga,"Carr. a Colombia 400, Ex Hacienda el Cañada, Cd Gral Escobedo","gas_station, point_of_interest, establishment"
7557,19995,BURGOS PLUS GASOLINERAS S.A. DE C.V.,PL/8762/EXP/ES/2015,-98.20662,26.00836,9743,20.49,diesel,1,1,Pemex,"Carrt. a, Puente Internacional Reynosa-Pharr # 1600, Reynosa","gas_station, point_of_interest, establishment"
7558,19998,"SUPERSERVICIO TERECAR, S.A. DE C.V.",PL/8290/EXP/ES/2015,-102.2539,21.8932,9744,18.49,regular,0,0,Mobil,"Av Siglo xxi 120, Municipio Libre, 20199 Aguascalientes, Ags Fracc, Municipio Libre, Aguascalientes","gas_station, point_of_interest, establishment"
7559,20001,ESTACION DE SERVICIO LA SABUGA SA DE CV,PL/8649/EXP/ES/2015,-98.03333,19.03893,9745,17.69,regular,5,1,Gasolinera Pemex,"Carretera Federal Puebla-Tehuacán Km. 18, Tepalcayuca o El Carmen, San Nicolás, Amozoc","gas_station, point_of_interest, establishment"
7560,20004,"GLV GASOLINERA LAS VILLAS, S. A. DE C. V.",PL/8305/EXP/ES/2015,-110.9246,27.946990000000003,9746,19.89,regular,0,0,Gasolinera Pemex,"Boulevard Diana Laura Riojas, Esq. Mar Del Norte, Guaymas Norte, Secc. Los Lagos, Heroica Guaymas","gas_station, point_of_interest, establishment"
7561,20006,"POLIGAS, S.A. DE C.V.",PL/8287/EXP/ES/2015,-98.28426,19.09676,9747,18.29,regular,4,79,TOTAL Periférico,Anillo Perif. Ecológico km 5,"gas_station, point_of_interest, establishment"
7562,20009,ENERGETICOS PARA TODOS S. A. DE C. V.,PL/8309/EXP/ES/2015,-100.3097,25.7081,9748,19.91,regular,0,0,Orsan,"Sin Nombre de Col 20, Monterrey","gas_station, point_of_interest, establishment"
7563,20012,GASOLINERA SILTEPEC S.A. DE C.V.,PL/8613/EXP/ES/2015,-92.31971999999999,15.550370000000001,9749,19.0,regular,0,0,Pemex,"Carretera Siltepec-Motozintla Sin Numero, Barrio Las Cruces, Siltepec","gas_station, point_of_interest, establishment"
7564,20014,"HIDROSINA PLUS, S.A.P.I. DE C.V.",PL/8177/EXP/ES/2015,-98.19372,19.071379999999998,9750,17.69,regular,3.9,26,Gasolinera Hidrosina,"Norte (Heroes Del 5 De Mayo)-13 Norte, Zona Sin Asignación de Nombre de Col 1, Santa María, Puebla","gas_station, point_of_interest, establishment"
7565,20016,"CONSORCIO GASOLINERO PLUS, S.A. DE C.V.",PL/8466/EXP/ES/2015,-97.52164,25.87729,9751,15.39,regular,5,1,Hidrosina,"Prol. González y, Leyes de Reforma No. 2035, Parque Industrial, Heroica Matamoros","gas_station, point_of_interest, establishment"
7566,20018,CARLOS HERNAN FIGUEROA MARTINEZ,PL/8638/EXP/ES/2015,-88.57333,21.58389,9752,19.2,regular,3.2,13,Pemex,"Calle 10 # 180, Río Lagartos","gas_station, point_of_interest, establishment"
7567,20021,Servicio Nainari Las Torres S.A. de C.V.,PL/8711/EXP/ES/2015,-109.9052,27.4915,9753,19.75,regular,1,1,Gasolinera Pemex,"Los Monjes Iii, Av. No Reeleccion 2602 Ote, Las Haciendas","gas_station, point_of_interest, establishment"
7568,20023,JUAN MANUEL MUÑOZ LUEVANO,PL/8293/EXP/ES/2015,-100.91,25.435579999999998,9754,16.99,regular,3.8,100,Cargo Gas Convenciones,"Blvrd los Fundadores 8550, Sin Nombre de Col 13, Saltillo","gas_station, point_of_interest, establishment"
7569,20026,"GRUPO INMOBILIARIA DIXA, SA DE CV",PL/8367/EXP/ES/2015,-107.4101,24.82139,9755,20.98,premium,3.8,25,PEMEX,"Blvd S/No Culiacan Sinaloa MX 80070, Enrique Félix Castro, Culiacán Rosales","gas_station, point_of_interest, establishment"
7570,20028,COMBUSTIBLES PINOS ALTOS SA DE CV,PL/8679/EXP/ES/2015,-106.1679,28.540309999999998,9756,18.49,regular,3.9,461,Gasolinera,El Fresno,"gas_station, point_of_interest, establishment"
7571,20031,IRENE GUADALUPE NAVIDAD CARDENAS,PL/8312/EXP/ES/2015,-106.4065,23.25575,9757,19.0,regular,4.8,10,GASOLINERA NAVI,"Av Sta Rosa 3620, Fuentes del Valle, Mazatlán","gas_station, point_of_interest, establishment"
7572,20033,"ENERGETICOS Y LUBRICANTES, S. A. DE C. V.",PL/8515/EXP/ES/2015,-100.2712,25.70755,9758,17.99,regular,4.6,443,Goodprice,"Sin Nombre de Col 21, Monterrey","gas_station, point_of_interest, establishment"
7573,20035,SUPER SERVICIO 5 DE MAYO S.A. DE C.V.,PL/8682/EXP/ES/2015,-100.6402,23.62031,9759,18.35,regular,1,2,Pemex,"Carr Matehuala, San Luis Km.1, Sta Ana, Matehuala","gas_station, point_of_interest, establishment"
7574,20038,MULTISERVICIOS ESPECIALIZADOS MORITA S.A. DE C.V.,PL/8669/EXP/ES/2015,-102.2444,21.53213,9760,19.39,regular,0,0,BP,"Lib. Carretero 1896, México, Encarnación de Díaz","gas_station, convenience_store, cafe, food, point_of_interest, store, establishment"
7575,20039,LUIS LAURO TORRES VELEZ,PL/8684/EXP/ES/2015,-102.0652,26.98405,9761,19.3,regular,3.8,55,Gasolinera Pemex,"Francisco I. Madero 105, Cuatro Ciénegas de Carranza, Zona Centro, Cuatrociénegas","gas_station, point_of_interest, establishment"
7576,20042,COMBUSTIBLES Y LUBRICANTES DON JUSTO SA DE CV,PL/8506/EXP/ES/2015,-95.64558000000001,18.72117,9762,17.94,regular,0,0,BP,"Costera del Golfo Km 50.3 de la Carrt. Fed. Paso Delq Toro, Alvarado","gas_station, atm, finance, cafe, food, point_of_interest, establishment"
7577,20045,RAMONA SALAS,PL/8229/EXP/ES/2015,-115.4282,32.58112,9763,17.19,diesel,3.9,62,Pemex,"Carrt Num. 1152 Mexicali Baja California MX 21100, Mexicali-San Felipe, Zona Sin Asignación de Nombre de Colonia, Mexicali","gas_station, point_of_interest, establishment"
7578,20048,MARIA DE JESUS WONG VILLARREAL,PL/8709/EXP/ES/2015,-92.45300999999999,14.88536,9764,18.03,regular,3.5,2,Pemex,"Km. 11 Carret. Desvio a, Mazatán","gas_station, point_of_interest, establishment"
7579,20050,GASOLEOS SAN JUAN DE LOS LLANOS SA DE CV,PL/8539/EXP/ES/2015,-97.6641,19.49425,9765,18.1,regular,0,0,TOTAL La Galera,Puebla,"gas_station, point_of_interest, establishment"
7580,20053,SINERGIA DE ENERGETICOS S.A. DE C.V.,PL/8216/EXP/ES/2015,-98.22966,19.04791,9766,18.04,regular,3,7,Pemex,"Av 25 Pte N 3321, Sta Cruz los Ángeles, Puebla","gas_station, point_of_interest, establishment"
7581,20055,GASOLINERA LOS ENCINOS SA DE CV,PL/8778/EXP/ES/2015,-110.96,31.28888,9767,16.55,premium,0,0,Pemex,"Av. Instituto Tecnologico # 983, Nogales","gas_station, point_of_interest, establishment"
7582,20057,"AUTO SERVICIO AIRAPI, S.A. DE C.V.",PL/8656/EXP/ES/2015,-110.3122,24.13339,9768,17.98,regular,4.1,37,Pemex,"Boulevard Forjadores E, Calle Yucatán y, Oaxaca, La Paz","gas_station, point_of_interest, establishment"
7583,20060,SERVICIO CACAHOATAN SA DE CV,PL/8616/EXP/ES/2015,-92.15965,14.98652,9769,17.79,premium,3.6,5,Pemex,"Sexta Calle Oriente # 74 Esq. 27 Av. Sur, Cacahoatán","gas_station, point_of_interest, establishment"
7584,20063,"CONSORCIO GASOLINERO PLUS, S.A. DE C.V.",PL/8368/EXP/ES/2015,-99.12879000000001,19.45635,9770,19.09,regular,3.7,171,Hidrosina,"Calz de Guadalupe No. 52, Ex Hipódromo de Peralvillo, Ciudad de México","gas_station, point_of_interest, establishment"
7585,20065,SERVICIO CENTRO COMERCIAL CHILPANCINGO S.A DE C.V.,PL/8329/EXP/ES/2015,-99.48233,17.51567,9771,20.14,regular,4.4,5,Gasolinera Pemex,"Av. Vicente Guerrero No. 543, Salubridad, Chilpancingo de los Bravo","gas_station, point_of_interest, establishment"
7586,20068,ALEJANDRO ROBLES MENDEZ,PL/8349/EXP/ES/2015,-97.70091,18.90395,9772,17.95,diesel,3.6,49,Gasolinera,"PUE 714 220 Tuzuapan, San José Tuzuapan","gas_station, point_of_interest, establishment"
7587,20071,SERVICIO SANTA ROSA DE LIMA S.A. DE C.V.,PL/8407/EXP/ES/2015,-97.62146,16.07191,9773,19.75,regular,0,0,Pemex,"Carr.Costera S/N Km.68 Pinotepa Nal.-Pto.Escondido, Villa de Tututepec","gas_station, point_of_interest, establishment"
7588,20074,"SERVICIO MIGUEL ANGEL, S. A. DE C. V.",PL/8640/EXP/ES/2015,-99.43768,19.178179999999998,9774,18.3,regular,0,0,service station,Xalatlaco,"gas_station, point_of_interest, establishment"
7589,20077,Gasolinera Los Angeles Sa deCv,PL/8729/EXP/ES/2015,-110.9439,31.311020000000003,9775,16.55,premium,0,0,Pemex,"Av, Calle Elías, No: 1230, Nogales","gas_station, point_of_interest, establishment"
7590,20080,"Servicios Integrados del Sureste de Veracruz, S.A",PL/8765/EXP/ES/2015,-94.51096,18.01248,9776,17.85,regular,3.5,20,PEMEX,Coatzacoalcos,"gas_station, point_of_interest, establishment"
7591,20083,"HIDROSINA PLUS, S.A.P.I. DE C.V.",PL/8465/EXP/ES/2015,-97.93134,22.39562,9777,17.49,regular,0,0,Gasolinera Pemex,"Boulevard Puerto Industrial Primex No. 105, Centro, Altamira","gas_station, point_of_interest, establishment"
7592,20085,"GASOLINERIAS PS, S.A. DE C.V.",PL/8706/EXP/ES/2015,-99.11649,19.26651,9778,19.18,regular,3.3,177,Gasolinera,"División del Norte 815, Potrero de San Bernardino, Ciudad de México","gas_station, point_of_interest, establishment"
7593,20088,SERVICIO PALVEG S.A DE C.V,PL/8288/EXP/ES/2015,-96.91138000000001,19.568579999999997,9779,18.5,regular,3.7,12,Pemex,"Av. Ramón López Velarde 39, Jose Vasconcelos, Xalapa-Enríquez","gas_station, point_of_interest, establishment"
7594,20090,"MERCANTIL MANTE, S.A. DE C.V.",PL/8578/EXP/ES/2015,-98.96802,22.74304,9780,17.7,regular,4.1,38,Gasolinería Mercantil Mante S.A de C.V,"Benito juárez 400, Zona Centro, Cd Mante","gas_station, point_of_interest, establishment"
7595,20092,"SERVICIOS GASOLINEROS DE MEXICO, S.A. DE C.V.",PL/8196/EXP/ES/2015,-100.9748,25.40522,9781,18.2,premium,4.4,20,Oxxo Gas Percheron,"Calle Otilio González 2939, Santa Elena, Saltillo","gas_station, point_of_interest, establishment"
7596,20094,"Estacion La Laguna, S.A. de C.V.",PL/8462/EXP/ES/2015,-99.12089,19.44039,9782,18.59,regular,2,2,Pemex,"Manuel de la Peña y Peña # 86, Morelos, Ciudad de México","gas_station, point_of_interest, establishment"
7597,20096,E.S.G.E.S. S.A DE C.V,PL/8390/EXP/ES/2015,-92.09595,18.25477,9783,19.99,regular,3.9,7,Gasolinera,"Carlos Cano Cruz, Palizada","gas_station, point_of_interest, establishment"
7598,20098,"SERVICIOS Y LUBRICANTES ALTOS DE CULIACAN, SA DE C",PL/8439/EXP/ES/2015,-107.0749,24.25518,9784,18.99,regular,4,1,Gasolinera Pemex,"Carretera Mexico 15 No. 600 Sur Pobl.Higueras De Abuya, Culiacan","gas_station, point_of_interest, establishment"
7599,20101,Gasolineria Tornado S.A. de C.V.,PL/8724/EXP/ES/2015,-102.0497,19.40494,9785,18.59,regular,3.9,76,Pemex,"Avenida Latinoamericana 1420, Ameritas, Uruapan","gas_station, point_of_interest, establishment"
7600,20104,VICTOR MANUEL DE ANDA URIBE,PL/8358/EXP/ES/2015,-100.3023,25.632479999999997,9786,18.9,regular,4.1,15,Pemex,"Av Lázaro Cárdenas 2301, Balcones del Mirador, Monterrey","gas_station, point_of_interest, establishment"
7601,20106,"SERVICIOS GASOLINEROS DE MEXICO, S.A. DE C.V.",PL/8421/EXP/ES/2015,-101.0221,25.35228,9787,19.39,diesel,3.9,285,Pemex,Zacatecas - Saltillo S/N,"gas_station, point_of_interest, establishment"
7602,20109,E.S.G.E.S. S.A DE C.V,PL/8412/EXP/ES/2015,-92.93526999999999,18.053639999999998,9788,17.49,regular,3.6,16,GES STATION MONTERREY,"Villahermosa - Comalcalco 269,La Libertad, Magisterial, Carlos A. Madrazo","gas_station, point_of_interest, establishment"
7603,20112,CHAVEZ AZPEITIA S.A DE C.V,PL/8377/EXP/ES/2015,-103.0387,19.93361,9789,20.05,premium,4,162,La Estacada,La estacada - Epenche Chico,"gas_station, point_of_interest, establishment"
7604,20115,ESTACION DE GAS SANTA MONICA S.A. DE C.V.,PL/8255/EXP/ES/2015,-104.3287,24.3936,9790,18.83,regular,3.3,3,Pemex,Carrt. Durango-Torreon Km 55,"gas_station, point_of_interest, establishment"
7605,20118,GASOLINERIA ZAPATA S.A. DE C.V.,PL/8637/EXP/ES/2015,-99.18573,18.834210000000002,9791,17.99,regular,3.9,7,bp,"Tejalpa- Zacatepec Carrt. Fed. Emiliano Zapata-Tezoyuca, Emiliano Zapata","gas_station, point_of_interest, establishment"
7606,20121,CARLOS HERNAN FIGUEROA MARTINEZ,PL/8632/EXP/ES/2015,-88.20482,20.671689999999998,9792,19.17,regular,4.1,17,FullGas Estación Saciabil,"Calle 11, Chun Huas, Valladolid","gas_station, point_of_interest, establishment"
7607,20123,"COMBUSTIBLES Y LUBRICANTES GHN, SA DE CV",PL/8577/EXP/ES/2015,-97.8735,22.26885,9793,17.6,regular,4,44,Gasolinera Lomas,"Av. Miguel Hidalgo, Lomas de La Aurora, Tampico","gas_station, point_of_interest, establishment"
7608,20125,RAMONA SALAS,PL/8233/EXP/ES/2015,-115.2542,32.24884,9794,16.89,regular,3.5,6,Pemex,"Av.Ignacio Allende y Calle Articulo 21, Carr a San Felipe, Mexicali","gas_station, point_of_interest, establishment"
7609,20128,SERVICIO CUARTO SEÑORIO SA DE CV,PL/8182/EXP/ES/2015,-98.21764,19.32628,9795,17.98,regular,4,105,BP,"Revolución, San Buenaventura Atempa, San Buenaventura Atempan","gas_station, convenience_store, cafe, food, point_of_interest, store, establishment"
7610,20131,SERVICIO LLANO EN LLAMAS SA DE CV,PL/8609/EXP/ES/2015,-103.98700000000001,19.701529999999998,9796,19.6,regular,0,0,Gasolinera Pemex,"Calle Francisco I. Madero No. 156, La Ermita, Tuxcacuesco","gas_station, point_of_interest, establishment"
7611,20134,"Servicio Las Facultades, S.A. de C.V.",PL/8333/EXP/ES/2015,-99.68023000000001,19.28097,9797,17.68,regular,4,71,E10223 Service Station,"Avenida Paseo Tollocan 510, Nueva Oxtotitlan,, Toluca de Lerdo","gas_station, point_of_interest, establishment"
7612,20137,"SERVICIO MOLINO DEL REY, S.A. DE C.V.",PL/8277/EXP/ES/2015,-98.27374,19.04188,9798,18.19,diesel,3.6,97,TOTAL Cholula,"Anillo Perif. Ecológico No 2003, Campestre Morillotla, San Andrés Cholula","gas_station, point_of_interest, establishment"
7613,20140,COMERCIALIZADORA SAN FRANCISCO DE ASIS SA DE CV,PL/8450/EXP/ES/2015,-98.41936,16.692989999999998,9799,19.19,regular,4.1,36,Gasolinera,"Nabor Ojeda, Ometepec","gas_station, point_of_interest, establishment"
7614,20143,"SERVICIOS VAZQUEZ HERMANOS, S.A. DE C.V.",PL/8775/EXP/ES/2015,-98.1469,19.41689,9800,17.85,regular,3,1,Pemex,"Independencia No. 307, San Miguel, Apizaco","gas_station, point_of_interest, establishment"
7615,20146,"HIDROSINA PLUS, S.A.P.I. DE C.V.",PL/8252/EXP/ES/2015,-100.8362,20.53148,9801,17.99,regular,3.8,86,Hidrosina,"Av. 12 de Octubre No. 200 Esq, Camino a San José de Guanajuato Fraccionamiento, Celaya","gas_station, point_of_interest, establishment"
7616,20148,JULIA AMARO COTA,PL/8654/EXP/ES/2015,-99.00153,19.39247,9802,18.55,regular,4,186,Repsol,"Av. Carmelo Pérez 394, Villada, Nezahualcóyotl","gas_station, point_of_interest, establishment"
7617,20151,"AUTO SERVICIO LA PIEDRERA, S.A. DE C.V.",PL/8735/EXP/ES/2015,-109.0018,25.77959,9803,19.96,regular,4.3,40,Smartgas Leyva,"Av. Gral. Gabriel Leyva 1300, Insurgentes, Los Mochis","gas_station, point_of_interest, establishment"
7618,20154,J CRUZ BOJORGES CASTRO,PL/8353/EXP/ES/2015,-98.88176999999999,19.55219,9804,18.27,regular,2.5,2,Pemex,"Camino a Papalotla # 9, Chiautla","gas_station, point_of_interest, establishment"
7619,20157,"Multiservicio Rojas, S.A. de C.V",PL/8726/EXP/ES/2015,-103.4643,21.2158,9805,20.2,diesel,3.7,31,Pemex,Km. 63 Carret. Guadalajara-Colotlan,"gas_station, point_of_interest, establishment"
7620,20159,Servicio Yucatanense S. de R.L. de C.V.,PL/8559/EXP/ES/2015,-88.13750999999999,21.14639,9806,19.44,regular,4,42,FullGas - Estación Tizimin,"Calle 49-C 192, San José Nahbalam, 97700 Tizimín, Yuc., México, San José Nahbalam, Tizimín","gas_station, point_of_interest, establishment"
7621,20162,"SERVICIOS GASOLINEROS DE MEXICO, S.A. DE C.V.",PL/8403/EXP/ES/2015,-100.1151,25.89165,9807,19.49,diesel,1,1,Pemex,"Benito Juarez # 500 Esq, Libramiento a Carretera a Marín, Gral Zuazua","gas_station, point_of_interest, establishment"
7622,20165,"SERVICIOS GASOLINEROS DE MEXICO, S.A. DE C.V.",PL/8199/EXP/ES/2015,-100.1636,25.700770000000002,9808,19.3,regular,3.9,130,Gasolinera Pemex,"Avenida Maestro Israel Cavazos Garza 335, Fracc. Privadas De San Miguel, Guadalupe","gas_station, point_of_interest, establishment"
7623,20167,SERVICIO ZACAPU S.A. DE C.V.,PL/8758/EXP/ES/2015,-101.7827,19.80859,9809,19.29,regular,0,0,Servicios Y Combustibles Rojo,"Lic. José Vega Díaz 83, Valle Verde, Zacapu","gas_station, point_of_interest, establishment"
7624,20170,VICTORIA GARCIA QUIÑONES,PL/8149/EXP/ES/2015,-99.6691,18.8128,9810,18.39,regular,4.1,22,Pemex,"Carrt. Fed. Toluca-Axixintla-Taxco Km 85+40, Tonatico","gas_station, point_of_interest, establishment"
7625,20173,NACIONAL DE COMBUSTIBLES Y LUBRICANTES S.A. DE C.V,PL/8584/EXP/ES/2015,-99.16915999999999,19.52319,9811,18.14,regular,4,1051,Shell,"Avenida 3-A, Gustavo A 142, Santa Rosa, Ciudad de México","gas_station, point_of_interest, establishment"
7626,20176,E.S.G.E.S. S.A DE C.V,PL/8399/EXP/ES/2015,-91.0462,18.19567,9812,19.69,regular,0,0,Pemex,"Calle 25 S/N entre 2-C y 2-D, Candelaria","gas_station, point_of_interest, establishment"
7627,20178,"SERVICIOS GASOLINEROS DE MEXICO, S.A. DE C.V.",PL/8340/EXP/ES/2015,-100.2697,25.66594,9813,18.4,regular,4.1,50,OXXO Gas,"Av. Chapultepec 2700, Valle de Chapultepec, Guadalupe","gas_station, point_of_interest, establishment"
7628,20180,"SERVICIOS GASOLINEROS DE MEXICO, S.A. DE C.V.",PL/8204/EXP/ES/2015,-100.2952,25.698420000000002,9814,19.3,regular,3.5,61,Gasolinera Pemex,"Av. Félix U. Gómez 2929, Villas de Linda Vista, Monterrey","gas_station, point_of_interest, establishment"
7629,20182,combustibles del lago sa de cv,PL/8631/EXP/ES/2015,-103.2427,20.30116,9815,19.19,regular,4.1,7,BP,"Carretera, Lib. A Chapala, Ajijic","gas_station, point_of_interest, establishment"
7630,20185,ESTACION DE SERVICIO CINCO DE MAYO SA DE CV,PL/8722/EXP/ES/2015,-110.9517,31.2587,9816,16.55,premium,4.3,40,Grupo Gasolinero 5 de Mayo,"México 15 4220, Nuevo Nogales, Nogales","gas_station, point_of_interest, establishment"
7631,20188,SUPER SERVICIO ATIZAPAN SA DE CV,PL/8713/EXP/ES/2015,-99.25254,19.567629999999998,9817,18.21,regular,3.6,130,Gasolinera Pemex,"Atizapan Centro, Ciudad López Mateos","gas_station, point_of_interest, establishment"
7632,20191,"GASOLINERA LA POBLANITA, S.A . DE C.V.",PL/8267/EXP/ES/2015,-98.20336999999999,18.97244,9818,17.75,regular,0,0,Pemex,"Av. Periferico # 2222, Puebla","gas_station, point_of_interest, establishment"
7633,20194,ESTACIONES DE SERVICIO PENINSULARES S.A. DE C.V.,PL/8754/EXP/ES/2015,-109.9268,22.92377,9819,19.14,regular,4,44,Pemex,"Leona Vicario, Colonia Lomas del Sol, Cabo San Lucas","gas_station, point_of_interest, establishment"
7634,20197,SERVICIOS GUVERID SA DE CV,PL/8153/EXP/ES/2015,-107.4391,24.77975,9820,17.94,regular,3.6,34,Gasolinera Pemex,"Clzda. Aeropuerto # 5003 Pte, Acera Norte, Culiacán Rosales","gas_station, point_of_interest, establishment"
7635,20199,SERVICIO TRAPALA E HIJOS S.A. DE C.V.,PL/8456/EXP/ES/2015,-98.42485,20.12432,9821,17.65,regular,4,61,Gasolinera Pemex,"Km. 7 Par Vial Tulancingo-Acatlan Esquina Camino San D Agustin Olvera, Acatlán","gas_station, point_of_interest, establishment"
7636,20202,"HIDROSINA PLUS, S.A.P.I. DE C.V.",PL/8171/EXP/ES/2015,-107.4253,24.79028,9822,17.65,regular,4.1,101,PEMEX,"Blvd. Emilianp Zapata # 2151 Pte, Culiacán Rosales","gas_station, point_of_interest, establishment"
7637,20204,MANUEL FELIX DURAN PEREZ,PL/8350/EXP/ES/2015,-98.75771,20.581979999999998,9823,18.4,regular,4.2,5,MANUEL FELIX DURAN PEREZ E.S.04265,HGO 37,"gas_station, point_of_interest, establishment"
7638,20207,"SERVICIOS GASOLINEROS DE MEXICO, S.A. DE C.V.",PL/8691/EXP/ES/2015,-100.221,25.71088,9824,19.3,regular,4.8,4,Gasolinera JM Gasolineros SA de CV,"Carr. Miguel Alemán 100, La Talaverna Guadalupe NL, Guadalupe","gas_station, point_of_interest, establishment"
7639,20210,"Super Servicio Tamarindo, S.A. de C.V.",PL/8323/EXP/ES/2015,-96.50555,19.34075,9825,17.49,regular,3.9,20,PeMex,Carr. Veracruz-Xalapa 249,"gas_station, point_of_interest, establishment"
7640,20213,"AUTO SERVICIO EMPRESARIAL DEL GOLFO, S.A. DE C.V.",PL/8494/EXP/ES/2015,-96.13506,19.17621,9826,16.58,regular,4.2,21,Auto Servicio Empresarial Del Golfo SA de CV,"Servicio Militar Nacional 40, Centro, Veracruz","gas_station, point_of_interest, establishment"
7641,20215,"HIDROSINA PLUS, S.A.P.I. DE C.V.",PL/8245/EXP/ES/2015,-107.4262,24.74843,9827,17.83,regular,4.2,11,Gasolinera Pemex,"Sur No.5720, Av. Benjamín Hill, Infonavit Barrancos, Culiacán Rosales","gas_station, point_of_interest, establishment"
7642,20217,"SERVICIOS GASOLINEROS DE MEXICO, S.A. DE C.V.",PL/8332/EXP/ES/2015,-103.411,20.51475,9828,19.15,diesel,1,1,Gasolinera Pemex,"Carr. a San Sebastian el Grande No. 1575, San Sebastián el Grande","gas_station, point_of_interest, establishment"
7643,20220,ESTACION DE SERVICIO AYUTLA SA DE CV,PL/8441/EXP/ES/2015,-99.10234,16.95149,9829,19.21,regular,0,0,Pemex,"Calzada 1° de Marzo S/N, Ayutla de los Libres","gas_station, point_of_interest, establishment"
7644,20223,"Super Servicio Diez, S.A. de C.V.",PL/8604/EXP/ES/2015,-98.26811,19.32092,9830,18.2,regular,5,1,Pemex,"Km.20, Camino Real a San Martin, Tlaxcala de Xicohténcatl","gas_station, point_of_interest, establishment"
7645,20225,"Grupo gasolinero de los Cinco, S.A. de C.V.",PL/8601/EXP/ES/2015,-98.19763,19.33331,9831,18.25,regular,3.5,69,Gasolinera Pemex,"Carretera 4 Carretera Chiautempan-Ocotoxco # 4 Via Corta Apizaco, Tlaltempa, Apetatitlán","gas_station, point_of_interest, establishment"
7646,20228,"HIDROSINA PLUS, S.A.P.I. DE C.V.",PL/8272/EXP/ES/2015,-93.21880999999999,18.2744,9832,17.95,regular,0,0,Gasolinera Pemex,"Prolongaci¾N Ignacio L¾Pez Ray¾N No. 1015, Calle Morelos, Comalcalco","gas_station, point_of_interest, establishment"
7647,20230,"AUTOSERVICIO GUADALUPANO, S.A. DE C.V.",PL/8262/EXP/ES/2015,-98.29262,19.02417,9833,18.19,regular,4,8,TOTAL Guadalupano,"Carretera Federal Puebla Atlixco, Cuayantla No 8505, San Bernardino Tlaxcalancingo, Tlaxcalancingo","gas_station, point_of_interest, establishment"
7648,20233,ESTACION DE SERVICIO FRONTERA SA DE CV,PL/8389/EXP/ES/2015,-97.50515,25.88555,9834,15.35,regular,4.1,20,Pemex,"M.A. Matamoros Iturbide y, Calle Sexta, Heroica Matamoros","gas_station, point_of_interest, establishment"
7649,20234,"GASOLINERA PROGRESO Y QUIROGA, S.A. DE C.V.",PL/8712/EXP/ES/2015,-111.024,29.142129999999998,9835,20.99,premium,5,1,Pemex,"Boulevard Antonio Quiroga, Praderas del Sol, Hermosillo","gas_station, point_of_interest, establishment"
7650,20237,"BP ESTACIONES Y SERVICIOS ENERGETICOS, S.A. DE C.V.",PL/8653/EXP/ES/2015,-98.98058,19.3765,9836,18.69,regular,4,246,bp,"Av. Pantitlán, Reforma, Nezahualcóyotl","gas_station, point_of_interest, establishment"
7651,20239,"GASOLINERA GOMARTI, S.A. DE C.V.",PL/8150/EXP/ES/2015,-100.0121,20.394820000000003,9837,17.49,regular,3.8,144,Pemex,"Avenida, Canal de Santa Clara # 12, Centro, San Juan del Río","gas_station, point_of_interest, establishment"
7652,20242,"Multiservicio Rojas, S.A. de C.V",PL/8728/EXP/ES/2015,-103.1595,21.262520000000002,9838,20.2,diesel,0,0,Pemex,Carrt. Guadalara-Saltillo Km 104,"gas_station, point_of_interest, establishment"
7653,20245,NACIONAL DE COMBUSTIBLES Y LUBRICANTES S.A. DE C.V,PL/8538/EXP/ES/2015,-99.18762,19.45512,9839,18.09,regular,4,659,Shell Ingre Combustible,"Avenida Marina Nacional Golfo de Riga No. 7 Esq, Tacuba","gas_station, point_of_interest, establishment"
7654,20248,VICTOR MANUEL SALINAS GUEDEA,PL/8381/EXP/ES/2015,-97.5046,25.878020000000003,9840,15.35,regular,0,0,Pemex,"Independencia y, Calle Sexta, Heroica Matamoros","gas_station, point_of_interest, establishment"
7655,20250,LA MERCANTIL DE GOMEZ FARIAS S.A. DE C.V.,PL/8485/EXP/ES/2015,-107.7332,29.341820000000002,9841,19.54,regular,4,2,Pemex,"Km. 160+300 Carrt, Cd. Cuauhtémoc, Valentín Gómez Farías","gas_station, point_of_interest, establishment"
7656,20252,"SERVICIOS GASOLINEROS DE MEXICO, S.A. DE C.V.",PL/8446/EXP/ES/2015,-100.1917,25.67484,9842,19.19,diesel,4.1,88,OXXO Gas,"Carretera A Reynosa, Las Huertas, Guadalupe","gas_station, point_of_interest, establishment"
7657,20255,"GEMEXSA, S.A. DE C.V.",PL/8570/EXP/ES/2015,-99.1772,23.73274,9843,18.8,regular,4.6,8,Gasolinera Pemex,"Lib. Lic. Emilio Portes Gil No. 2322, Fraccionamiento La Cima, Cd Victoria","gas_station, point_of_interest, establishment"
7658,20257,ARTURO GUTIERREZ GONZALEZ,PL/8415/EXP/ES/2015,-101.53,27.0442,9844,18.59,regular,4.1,94,Pemex,"Carretera Monclova-Cuatro Caminos S/N, Centro, San Buenaventura","gas_station, point_of_interest, establishment"
7659,20260,Servicio Tatanacho S.A. de C.V.,PL/8542/EXP/ES/2015,-100.9927,22.14039,9845,17.7,regular,3.5,18,GASOMEX,"Av. Himno Nacional 555, Int. 1, Tangamanga, San Luis","gas_station, point_of_interest, establishment"
7660,20262,"SERVICIOS SAN PEDRO DE NAYARIT, S.A. DE C.V.",PL/8595/EXP/ES/2015,-104.7503,21.19666,9846,19.85,regular,0,0,Gasolinera Pemex,"Carretera Chapalilla-Compostela Km. 0.055, Lagunillas","gas_station, point_of_interest, establishment"
7661,20265,GERARDO GARZA GARCIA,PL/8408/EXP/ES/2015,-99.68042,25.59889,9847,19.0,regular,4.4,22,Estación Pemex,Los Ramones,"gas_station, point_of_interest, establishment"
7662,20268,DIST. DE COMBUSTIBLES DE ZAC. SA DE CV,PL/8328/EXP/ES/2015,-103.0526,23.83521,9848,19.95,regular,5,1,Estación de Servicio las Américas,"A Torreón SN, Centro, Río Grande","gas_station, point_of_interest, establishment"
7663,20271,GRUPO IMERS S DE RL DE CV,PL/8190/EXP/ES/2015,-105.1494,21.19333,9849,19.99,diesel,4.3,15,"Gasolinera Grupo IMERS ""La Gasolinera del Canguro""","Km 2, 03, Carretera, Zacualpan, Las Varas","gas_station, point_of_interest, establishment"
7664,20274,"GASOLINERA LOPEZ, S.A. DE C.V.",PL/8379/EXP/ES/2015,-89.62635999999999,20.96337,9850,18.5,regular,3.2,14,GASOLINERA LOPEZ,"Calle 69 539, Centro, Mérida","gas_station, point_of_interest, establishment"
7665,20277,"AUTOSERVICIO BENITEZ, SA DE CV",PL/8674/EXP/ES/2015,-116.6329,32.566320000000005,9851,17.29,regular,4.1,44,ARCO,"Av. Nuevo Leon Pte. # 79, Col. Centro, C.P Mexicali, Tecate","gas_station, point_of_interest, establishment"
7666,20280,FRANCISCO JAVIER AVILA LARA,PL/8497/EXP/ES/2015,-100.8783,20.21601,9852,18.73,premium,0,0,Pemex,"Calle Francisco I. Madero Num.724, Zona Centro, Salvatierra","gas_station, point_of_interest, establishment"
7667,20283,GASOLINERA DE LA VICENTE GUERRERO DE CD. MADERO SA,PL/8608/EXP/ES/2015,-97.86578,22.25245,9853,15.53,regular,0,0,Pemex,"Ayuntamiento 1301, Tampico","gas_station, point_of_interest, establishment"
7668,20285,SERVICIOS Y COMBUSTIBLES TEPEYAC S.A DE.C.V,PL/8397/EXP/ES/2015,-103.413,20.65898,9854,18.79,regular,5,1,Los Restauradores Detallado Automotriz,"Prados Tepeyac, Zapopan","gas_station, point_of_interest, establishment"
7669,20287,ZACARIAS MELHEM SALINAS,PL/8282/EXP/ES/2015,-98.0687,25.97927,9855,14.49,regular,4,14,Pemex,"Av Francisco I. Madero No. 109, La Paz, Cd Río Bravo","gas_station, point_of_interest, establishment"
7670,20290,E.S.G.E.S. S.A DE C.V,PL/8387/EXP/ES/2015,-91.77973,17.741039999999998,9856,17.8,regular,4.1,8,Grupo Energético del Sureste S.A. de C.V.,"Av. Chiapas, Tierra y Libertad, Emiliano Zapata","gas_station, point_of_interest, establishment"
7671,20293,SUPER SERVICIO HERRERA DEL NORTE SA DE CV,PL/8525/EXP/ES/2015,-106.3879,31.648740000000004,9857,12.71,regular,4,103,ES 4159 - Las Torres,"Av de las Torres 540, Valle Dorado, Cd Juárez","gas_station, point_of_interest, establishment"
7672,20294,SERVICIO MANACAR S.A. DE C.V.,PL/8154/EXP/ES/2015,-96.13745,18.08176,9858,20.25,diesel,5,1,bp,"Benito Juárez, La Piragua, San Juan Bautista Tuxtepec","gas_station, point_of_interest, establishment"
7673,20297,"Servicios Marítimos de Cabo, S.A de C.V.",PL/8536/EXP/ES/2015,-109.9066,22.88009,9859,19.6,regular,4.5,6,IGY Marina Fuel Dock,"Centro, Marina, Ciudad de México","gas_station, point_of_interest, establishment"
7674,20298,INMOBILIARIA LOS REYES FIASA  S  A   DE   C  V,PL/8151/EXP/ES/2015,-99.09435,19.4247,9860,20.09,premium,4.2,822,BP,"Blvd. Puerto Aéreo No. 134, col. Moctezuma Segunda Sección, Alcaldía, Ciudad de México","gas_station, atm, finance, cafe, food, point_of_interest, establishment"
7675,20301,SINERGIA DE ENERGETICOS S.A. DE C.V.,PL/8611/EXP/ES/2015,-98.27601999999999,19.0601,9861,18.49,premium,3.6,35,Pemex,"Ruta Quetzalcóatl 3499, Santiago Momoxpan, Cholula","gas_station, point_of_interest, establishment"
7676,20303,SERVICIO COPALA SA DE CV,PL/8424/EXP/ES/2015,-98.97091999999999,16.60344,9862,19.55,regular,4.5,8,Pemex,"Carrt. Nacional Acapulco-Pinotepa, Km 119, Copala","gas_station, point_of_interest, establishment"
7677,20306,GASOLEOS SAN JUAN DE LOS LLANOS SA DE CV,PL/8527/EXP/ES/2015,-97.65143,19.130760000000002,9863,17.76,regular,3.7,3,Total San Salvador,"20 de Nov 6, Doctores, San Salvador el Seco","gas_station, point_of_interest, establishment"
7678,20308,COMBUSTIBLES DE LA CUENCA DEL PAPALOAPAN SA DE CV,PL/8258/EXP/ES/2015,-96.2452,18.33905,9864,18.35,regular,4.2,17,Gasolinera Pemex ES 11161,"Sayula de Alemán - Tierra Blanca 31a, El Ojochal, El Jobo","gas_station, point_of_interest, establishment"
7679,20311,MAURICIO JURADO TORRES,PL/8673/EXP/ES/2015,-113.5617,31.339709999999997,9865,19.36,regular,3.9,45,Pemex - Sandy Beach,"Sandy Beach, Puerto Peñasco","gas_station, point_of_interest, establishment"
7680,20313,"COMBUSTIBLES DE LA VEGA, S.A. DE C.V.",PL/8476/EXP/ES/2015,-98.7963,20.74166,9866,18.6,regular,4,8,Gasolinera,"La Alameda, Eloxochitlán","gas_station, point_of_interest, establishment"
7681,20315,JORGE IRVING VELAZQUEZ GUERRERO,PL/8371/EXP/ES/2015,-96.9149,18.7972,9867,18.05,regular,3.8,11,Gasolinera Los Ángeles,Amatlán de los Reyes,"gas_station, point_of_interest, establishment"
7682,20318,SERVICIO ADAREN SA DE CV,PL/8429/EXP/ES/2015,-98.44086,16.68561,9868,19.19,regular,3.9,33,Gasolinera,Ometepec,"gas_station, point_of_interest, establishment"
7683,20320,Hidrocarburos Maradevi S.A. de C.V.,PL/8599/EXP/ES/2015,-96.17625,19.10916,9869,17.95,regular,3.4,83,Pemex gas station 11272,Heroica Veracruz,"gas_station, point_of_interest, establishment"
7684,20323,E.S.G.E.S. S.A DE C.V,PL/8413/EXP/ES/2015,-90.61916,19.7911,9870,19.15,regular,4,66,Pemex,"Carretera, Campeche - Champotón No. 81, Lerma","gas_station, point_of_interest, establishment"
7685,20326,GASOLINERA LA MANZANILLA S.A. DE C.V.,PL/8551/EXP/ES/2015,-103.15100000000001,20.00666,9871,19.79,regular,0,0,Pemex,"Calle Avila Camacho No.200, La Manzanilla de la Paz","gas_station, point_of_interest, establishment"
7686,20329,"HIDROSINA PLUS, S.A.P.I. DE C.V.",PL/8268/EXP/ES/2015,-93.37753000000001,17.97556,9872,17.99,regular,4,13,Pemex,"Periferico Carlos Molina Y Avenida Franboyanes S/N Rancheria Paso Y, Lázaro Cárdenas, Heroica Cárdenas","gas_station, point_of_interest, establishment"
7687,20331,"SERVICIOS GASOLINEROS DE MEXICO, S.A. DE C.V.",PL/8430/EXP/ES/2015,-100.939,25.51199,9873,18.89,premium,3.9,171,OXXO GAS MISIONES,"Calle Calz. Salto de Agua 1851, Manantiales del Valle, Villa Alta, Ramos Arizpe","gas_station, point_of_interest, establishment"
7688,20333,IMPULSORA ENERGETICA SA DE CV,PL/8652/EXP/ES/2015,-103.2816,20.7026,9874,18.47,regular,3.5,8,Gasolinera Pemex,"Manuel Gomez Morin, Anillo Perif. Ote. No. 2090, Tetlán Río Verde, Guadalajara","gas_station, point_of_interest, establishment"
7689,20336,SILCAR COMBUSTIBLES SA DE CV,PL/8324/EXP/ES/2015,-97.42742,20.581310000000002,9875,14.29,regular,5,1,Pemex,Veracruz,"gas_station, point_of_interest, establishment"
7690,20339,Super Gas Real del Potosí S.A. DE C.V.,PL/8459/EXP/ES/2015,-100.8694,22.14334,9876,17.99,regular,0,0,Pemex,San Luis Potosi,"gas_station, point_of_interest, establishment"
7691,20342,"HIDROSINA PLUS, S.A.P.I. DE C.V.",PL/8248/EXP/ES/2015,-103.3949,25.53483,9877,17.99,regular,3.9,20,Hidrosina,"Blvd. Torreón - Matamoros Esq, Calz División del Nte S/N, La Merced, Torreón","gas_station, point_of_interest, establishment"
7692,20344,"SERVICIOS LA PRIMAVERA, S.A. DE C.V.",PL/8686/EXP/ES/2015,-101.9165,19.19505,9878,18.2,regular,4,229,Petrol station Sanitary La Primavera,Nuevo Urecho,"gas_station, point_of_interest, establishment"
7693,20347,MULTISERVICIOS ESPECIALIZADOS MORITA S.A. DE C.V.,PL/8681/EXP/ES/2015,-102.2463,22.17026,9879,19.65,regular,5,1,Morita Tepezala,Pabellón de Arteaga,"gas_station, point_of_interest, establishment"
7694,20350,"HIDROSINA PLUS, S.A.P.I. DE C.V.",PL/8292/EXP/ES/2015,-107.3708,24.768179999999997,9880,18.59,regular,4.4,25,Hidrosina,"Av. Patria, Esq. Blvd, Arquitecto Luis Fernando Molina No. 53140, Lázaro Cárdenas, Culiacán Rosales","gas_station, point_of_interest, establishment"
7695,20352,MARIA EUGENIA MORALES ARVIZU,PL/8508/EXP/ES/2015,-109.9295,27.45218,9881,19.09,regular,0,0,Gasolinera Pemex,"Avenida De Las Misiones Ote. No. 1196, Misión de San Xavier","gas_station, point_of_interest, establishment"
7696,20355,"SERVICENTRO CUAUHTEMOC, S. DE R.L. DE C.V.",PL/8496/EXP/ES/2015,-115.4523,32.662690000000005,9882,16.99,premium,0,0,El Guardian Cuahutemoc,"Cuauhtémoc Nte, Mexicali","gas_station, point_of_interest, establishment"
7697,20357,"GASOLINERA ARCA, S.A. DE C.V.",PL/8554/EXP/ES/2015,-108.6165,26.41041,9883,19.75,regular,4.5,2,Gasolinera Pemex,"Blvd. Paso por El Fuerte Y C. Hoyancos, El Fuerte","gas_station, point_of_interest, establishment"
7698,20360,"Gasolinera Tecorral, S.A. de C.V.",PL/8451/EXP/ES/2015,-99.11621,18.119510000000002,9884,19.99,regular,4.7,3,Pemex,Carrt. Atenango-Huitzuco Km 2,"gas_station, point_of_interest, establishment"
7699,20363,GASEGURO S.A. DE C.V.,PL/8378/EXP/ES/2015,-103.4004,20.24948,9885,19.25,premium,3.4,8,Pemex,"carretera, Guadalajara-Morelia #10, San Cristóbal Zapotitlán","gas_station, convenience_store, food, point_of_interest, store, establishment"
7700,20365,COMBUSTIBLES Y LUBRICANTES HANDALL SA DE CV (8301),PL/8334/EXP/ES/2015,-88.30641,18.49824,9886,18.49,regular,3.7,123,Pemex,"Av Álvaro Obregón #, 361, Chetumal","gas_station, point_of_interest, establishment"
7701,20368,ATZEL BELEN VALDEZ BARRERA,PL/8645/EXP/ES/2015,-99.54198000000001,19.047320000000003,9887,18.4,regular,5,2,Pemex,State of Mexico,"gas_station, point_of_interest, establishment"
7702,20371,"SERVICIOS GASOLINEROS DE MEXICO, S.A. DE C.V.",PL/8425/EXP/ES/2015,-100.5278,25.748620000000003,9888,19.3,regular,3.9,26,Oxxo Gas Parque las Americas,"CARR A GARCIA 104, PUERTO DURAZNO GARCIA","gas_station, point_of_interest, establishment"
7703,20374,"AUTO SERVICIO LA PIEDRERA, S.A. DE C.V.",PL/8738/EXP/ES/2015,-108.9865,25.78136,9889,19.96,regular,0,0,Smartgas Belisario,"Blvd. Rosendo G. Castro Pte. #502 ote, La Bienestar, Los Mochis","gas_station, point_of_interest, establishment"
7704,20377,EL OASIS EN EL LIBRAMIENTO SA DE CV,PL/8308/EXP/ES/2015,-97.42865,20.96281,9890,18.9,regular,4.1,20,Oxifuel Tuxpan,"Perfume de Gardenias 3, Villa Rosita, Túxpam de Rodríguez Cano","gas_station, point_of_interest, establishment"
7705,20380,"GRUPO GASOLINERO 4 SEÑORIOS, SA DE CV",PL/8683/EXP/ES/2015,-98.01892,19.85943,9891,18.45,regular,4,79,PeMex,"Carretera Federal Apizaco - Huauchinango Km. 59, Chignahuapan","gas_station, point_of_interest, establishment"
7706,20383,GASOLINERA DE VILLA HIDALGO S.A. DE C.V.,PL/8647/EXP/ES/2015,-105.234,21.742379999999997,9892,19.07,regular,3.5,2,Gasolinera Pemex,"Ejido No. 80, Centro, Villa Hidalgo","gas_station, point_of_interest, establishment"
7707,20385,AUTOSERVICIOS ALFA S.A. DE C.V.,PL/8208/EXP/ES/2015,-115.5189,32.64614,9893,16.43,regular,4.2,9,Santa Barbara Pemex,"Luis Echeverría Álvarez 2600, Zona Urbana Orizaba, Mexicali","gas_station, point_of_interest, establishment"
7708,20387,AUTO SERVICIO EL TOLO SA DE CV,PL/8237/EXP/ES/2015,-115.5395,32.62169,9894,15.99,regular,3.8,10,Gasolinera Pemex,"Calzada General, Blvrd Lázaro Cárdenas No. 3486, Huertas de La Progreso, Mexicali","gas_station, point_of_interest, establishment"
7709,20389,"SERVICIO SAN BERNABE, S. A. DE C. V.",PL/8662/EXP/ES/2015,-100.3982,25.75733,9895,18.09,regular,4,2,Gulf Av. Lincon,"Unnamed Road, Chapultepec Sur","gas_station, point_of_interest, establishment"
7710,20392,"SERVICIOS GASOLINEROS DE MEXICO, S.A. DE C.V.",PL/8158/EXP/ES/2015,-101.6227,21.08868,9896,18.6,regular,4.1,105,Gasolinera Pemex,"Blvd. Delta Num. 202, Industrial Delta, León","gas_station, point_of_interest, establishment"
7711,20394,"GASOLINERA BORJA, S.A DE C.V.",PL/8692/EXP/ES/2015,-109.9455,27.464579999999998,9897,19.19,regular,0,0,Gasolinera Pemex,"C. Rodolfo Felix Valdez No. 302 Pte, Franja Comercial 300","gas_station, point_of_interest, establishment"
7712,20397,SUPER SERVICIO BULEVARES SA DE CV,PL/8714/EXP/ES/2015,-99.24096,19.48882,9898,18.43,regular,3.8,393,Pemex,"Segunda Cerrada de Duraznos No.8, Naucalpan de Juárez","gas_station, point_of_interest, establishment"
7713,20399,Gasolinera Faza SA de CV,PL/8164/EXP/ES/2015,-103.6243,25.52696,9899,18.94,regular,5,1,Pemex,"Km.1156 Carr.Interoceanica, Cd Lerdo","gas_station, point_of_interest, establishment"
7714,20402,Servicios y Mantenimiento del Ntede Reynosa SA CV,PL/8318/EXP/ES/2015,-98.22662,26.02028,9900,14.88,regular,3.8,77,Pemex,"Carr.A Matamoros Km.82.5 entre Cortijo y Bienestar, Reynosa","gas_station, point_of_interest, establishment"
7715,20404,ENERGETICOS DE TEPEACA S.A. DE C.V.,PL/8314/EXP/ES/2015,-97.89882,18.960729999999998,9901,17.84,premium,3.2,34,"Gasolinera ""PEMEX""","Calle 4 Sur, 7 Ote. Esq, Tepeaca","gas_station, point_of_interest, establishment"
7716,20407,MANUEL ALFONZO LINAJE NEIRA,PL/8417/EXP/ES/2015,-101.4506,26.927659999999996,9902,18.1,regular,5,2,Pemex,"Calle 5 de Mayo 110, Zona Centro, Frontera","gas_station, point_of_interest, establishment"
7717,20409,"HIDROSINA PLUS, S.A.P.I. DE C.V.",PL/8254/EXP/ES/2015,-99.33463,20.05827,9903,17.99,regular,4,1,Hidrosina,"Blvd. Tula Iturbe No. 118, Esq. Tulipanes, El Salitre, Tula de Allende","gas_station, point_of_interest, establishment"
7718,20411,"SERVICIOS GASOLINEROS DE MEXICO, S.A. DE C.V.",PL/8209/EXP/ES/2015,-100.3985,25.661070000000002,9904,20.76,premium,0,0,Gas San pedro,"Casco Urbano, San Pedro Garza García","gas_station, point_of_interest, establishment"
7719,20414,ESTACIONES DE SERVICIO SAN JOSE DE A  SA DE CV,PL/8436/EXP/ES/2015,-98.36991,16.71,9905,19.27,regular,5,2,Pemex,"Carretera Ometepec - Xochistlahuaca S/N, Ometepec","gas_station, point_of_interest, establishment"
7720,20417,"SERVICIOS GASOLINEROS DE MEXICO, S.A. DE C.V.",PL/8170/EXP/ES/2015,-100.9671,25.49461,9906,18.89,premium,1,2,Oxxo Gas Villa Ferré,"Carret. Monterrey Saltillo 7625, Jardines del Campestre, Saltillo","gas_station, convenience_store, food, point_of_interest, store, establishment"
7721,20419,LIMA PROVEEDORA DE SERVICIOS S.A. DE C.V.,PL/8520/EXP/ES/2015,-108.9659,25.824279999999998,9907,19.99,regular,4,161,Pemex,Carrt. Internacional # 15 Mexico-Nogales Km 204+30,"gas_station, point_of_interest, establishment"
7722,20422,"SERVICIOS GASOLINEROS DE MEXICO, S.A. DE C.V.",PL/8157/EXP/ES/2015,-101.6754,21.10044,9908,19.85,premium,0,0,Gasolinera Pemex,"Blvrd Torres Landa Pte Num. 1502, Fraccionamiento San Miguel, León","gas_station, point_of_interest, establishment"
7723,20425,Grupo Ram Val S.A. de C.V.,PL/8721/EXP/ES/2015,-98.93911999999999,19.60095,9909,18.9,regular,4,3,Pemex,"Km.2.5, México-texcoco, Texcoco","gas_station, point_of_interest, establishment"
7724,20428,SUPER SERVICIO SANTA MONICA SA DE CV,PL/8742/EXP/ES/2015,-101.2084,19.70039,9910,17.85,regular,3.9,118,Súper Servicio Santiaguito,"Calz La Huerta 200, Nueva Valladolid, Morelia","gas_station, point_of_interest, establishment"
7725,20430,SINERGIA DE ENERGETICOS S.A. DE C.V.,PL/8211/EXP/ES/2015,-98.26531,19.02075,9911,18.14,regular,3.8,12,Perifuel Matriz,"Anillo Perif. Ecológico 3503, Tlaxcalancingo","gas_station, atm, convenience_store, finance, food, point_of_interest, store, establishment"
7726,20433,"SERVICIOS GASOLINEROS DE MEXICO, S.A. DE C.V.",PL/8195/EXP/ES/2015,-100.1979,25.78071,9912,19.3,regular,4.1,88,Gasolinera Pemex,"C. Reforma No. 800, Cabecera Municipal (Apodaca), Apodaca Centro, Cd Apodaca","gas_station, point_of_interest, establishment"
7727,20435,"SERVICIOS GASOLINEROS DE MEXICO, S.A. DE C.V.",PL/8428/EXP/ES/2015,-100.9433,25.53184,9913,18.89,premium,4.1,39,Oxxo Gas El Saucillo,"Blvd.Carlos Morales 2631, Gran Hacienda, Ramos Arizpe","gas_station, point_of_interest, establishment"
7728,20437,NATHANAEL VELAZQUEZ NIETO,PL/8489/EXP/ES/2015,-96.75268,18.70251,9914,17.99,premium,4,3,Pemex,Omealca,"gas_station, point_of_interest, establishment"
7729,20440,JUAN ANTONIO ALBERTO HERNANDEZ GONZALEZ,PL/8220/EXP/ES/2015,-109.9102,27.48726,9915,19.91,regular,3.9,46,Gasolinera Pemex,"Calle Blvd. Bartolomé Delgado de León 512 Sur, El Campanario, Cd Obregón","gas_station, point_of_interest, establishment"
7730,20443,"Multiservicio Rojas, S.A. de C.V",PL/8760/EXP/ES/2015,-103.0909,21.46527,9916,19.89,regular,3.7,9,Pemex,"Carr. Guadalajara - Saltillo Km 132, Apozol","gas_station, point_of_interest, establishment"
7731,20445,"SERVICIOS GASOLINEROS DE MEXICO, S.A. DE C.V.",PL/8426/EXP/ES/2015,-100.5349,25.726779999999998,9917,19.3,regular,4,115,Pemex,"Libramiento Noreste Km 3.875, Sin Colonia, García","gas_station, point_of_interest, establishment"
7732,20448,"SERVICIOS GASOLINEROS DE MEXICO, S.A. DE C.V.",PL/8207/EXP/ES/2015,-100.1859,25.64467,9918,19.3,regular,4.1,108,OXXO,"Av. Acueducto No. 300 Jardines De La Silla, Guadalupe","gas_station, point_of_interest, establishment"
7733,20450,SERVICIO LIBRAMIENTO BAPJE SA DE CV,PL/8187/EXP/ES/2015,-97.93454,19.321920000000002,9919,18.09,regular,0,0,Gasolinera Pemex,"Carretera Lib.Huamantla Km 0+650 Al 0770, Huamantla","gas_station, point_of_interest, establishment"
7734,20453,SERVICIO TLATILCO SA DE CV,PL/8731/EXP/ES/2015,-99.2377,19.46663,9920,18.32,regular,3.1,36,"SERVICIO TLATILCO, S.A DE C.V","Walter C. Buchanan s/n, San Luis Tlatilco, Naucalpan de Juárez","gas_station, point_of_interest, establishment"
7735,20456,"KOPLA, S.A. DE C.V",PL/8703/EXP/ES/2015,-100.8345,19.86195,9921,19.17,regular,3.6,57,PEMEX-590,"Lázaro Cárdenas, Félix Ireta, Zinapecuaro de Figueroa","gas_station, point_of_interest, establishment"
7736,20459,GASOLINERA N3 SA DE CV,PL/8587/EXP/ES/2015,-96.65706,18.72675,9922,18.74,regular,4.5,2,GASOLINERA DOS CAMINOS,Camino / Dos Caminos,"gas_station, point_of_interest, establishment"
7737,20462,GUILLERMO WURTS RAMIREZ,PL/8576/EXP/ES/2015,-97.88346999999999,20.3853,9923,18.7,regular,3.6,101,Pemex,"Mexico - Tuxpan Km 240, Centro, Villa Ávila Camacho","gas_station, point_of_interest, establishment"
7738,20465,RUTH ANTHCHRISTIE NINO TALAVERA,PL/9037/EXP/ES/2015,-100.3659,20.21161,9924,17.84,regular,4.3,12,Gasolinera Pemex,"Km. 59+300 Carretera San J. Del Rio,Coron 38590 Coroneo Guanajuato MX, Acámbaro","gas_station, point_of_interest, establishment"
7739,20468,"INTEGRANTES DEL EJIDO DE SAN CRISTOBAL TEXCALUCAN,",PL/9133/EXP/ES/2015,-99.29709,19.43048,9925,20.45,regular,2.8,16,gasolinera 8656,"Autopista Chamapa–La Venta, AUTOPISTA, San Cristóbal Texcalucan","gas_station, point_of_interest, establishment"
7740,20471,GASOLINERA INFONAVIT SA DE CV,PL/8944/EXP/ES/2015,-102.3516,20.697770000000002,9926,18.5,regular,3.8,48,Gasolinera Pemex,"General Arteaga No. 383 Esq. C. Santa Catalina Fracc, Jardines de Santa María, Arandas","gas_station, point_of_interest, establishment"
7741,20474,"CORPORACIÓN GASOLINERA MILLENIUM, S.A. DE C.V.",PL/8900/EXP/ES/2015,-99.19788,18.802670000000003,9927,18.19,regular,3.7,15,Gasolinera PEMEX,"Cruce Carrt. Tezoyuca-Zapata, Emiliano Zapata","gas_station, point_of_interest, establishment"
7742,20477,MERCARMEN S.A. DE C.V.,PL/8936/EXP/ES/2015,-101.38600000000001,20.91545,9928,19.69,regular,3.8,46,Gasolinera Pemex,"Silao-Irapuato, Silao","gas_station, point_of_interest, establishment"
7743,20480,Gasolineria el rosario S.A. de C.V.,PL/9162/EXP/ES/2015,-99.97341,20.42819,9929,18.42,regular,3,2,Pemex,"Carretera San Juan del Río-Tequisquiapan Km.6.5, San Juan del Río","gas_station, point_of_interest, establishment"
7744,20483,GABINO RAFAEL VERGARA ROMERO,PL/8947/EXP/ES/2015,-98.77419,18.51031,9930,18.67,regular,4.2,18,Gasolinera Pemex,"Avenida Colon # 195, Esq. Libramiento San Pablo, La Laguna, Axochiapan","gas_station, point_of_interest, establishment"
7745,20486,"MULTISERVICIOS SANTA CLARA, S.A. DE C.V.",PL/9018/EXP/ES/2015,-100.8279,19.81907,9931,19.17,regular,3.7,10,GRUPO OCTANO Estación Queréndaro,"Avenida, Álvaro Obregón Ote., Centro, Queréndaro","gas_station, point_of_interest, establishment"
7746,20489,"SERVICIO CHAPLUK, S.A.",PL/8878/EXP/ES/2015,-116.6165,31.859440000000003,9932,17.59,premium,3,4,Pemex Gas Station,"Av Adolfo López Mateos N 1409, Obrera, Ensenada","gas_station, point_of_interest, establishment"
7747,20491,AUTOSERVICIO ACEGA SA DE CV,PL/9038/EXP/ES/2015,-99.19671,19.66889,9933,17.99,regular,3.6,68,Pemex,"Calz. de Guadalupe S/N. Lote-1, Cuautitlán","gas_station, point_of_interest, establishment"
7748,20494,GASOLINERIA COSCOMATEPEC S.A DE C.V.,PL/9120/EXP/ES/2015,-97.04466,19.065739999999998,9934,17.95,regular,4,21,Estacion Gasolinera,"Huatusco - Fortin 330, Santa Rosa, Coscomatepec de Bravo","gas_station, point_of_interest, establishment"
7749,20496,Jose Corte Herrea,PL/9084/EXP/ES/2015,-97.61336999999999,19.52673,9935,18.38,regular,5,1,Gasolinera Pemex,Avenida Cuauhtemoc No. 22,"gas_station, point_of_interest, establishment"
7750,20498,SERVICIO ACAPULCO  DIAMANTE  S.A. DE C.V.,PL/9016/EXP/ES/2015,-99.78716,16.78258,9936,18.99,regular,3.9,90,Pemex,"Primavera No. 34, La Poza, Acapulco de Juárez","gas_station, point_of_interest, establishment"
7751,20500,CARLOS HERNAN FIGUEROA MARTINEZ,PL/9027/EXP/ES/2015,-87.4518,20.21516,9937,19.19,regular,4,3,Pemex,"Av. Tulum Lote-02 Manzana 3, 10","gas_station, point_of_interest, establishment"
7752,20502,"SERVICIO EL KENO, S.A. DE C.V.",PL/8876/EXP/ES/2015,-110.9921,29.10737,9938,20.19,regular,4.8,9,"Grupo Centenario Suc. ""El Puma""","Bulevar Solidaridad & Av. Ángel García Aburto, Choyal, Hermosillo","gas_station, point_of_interest, establishment"
7753,20504,FRANCISCO DIAZ DELGADO,PL/8997/EXP/ES/2015,-102.0605,22.10604,9939,18.79,regular,4.1,27,PEMEX,Asientos,"gas_station, point_of_interest, establishment"
7754,20507,"SERVICIOS GASOLINEROS DE MEXICO, S.A. DE C.V.",PL/8943/EXP/ES/2015,-100.2807,25.66708,9940,18.4,regular,5,1,Gasolinera,"Av. Chapultepec 1833-C, Buenos Aires, Monterrey","gas_station, point_of_interest, establishment"
7755,20510,ANAYANTZI CORDOVA DIAZ,PL/9106/EXP/ES/2015,-97.84991,18.467,9941,17.8,regular,0,0,Pemex,Puebla,"gas_station, point_of_interest, establishment"
7756,20513,SERVICIO TABOR S.A. DE CV.,PL/9028/EXP/ES/2015,-96.20221,19.160120000000003,9942,17.79,diesel,3.8,148,Pemex,"México 140 764, Amapolas, Amapolas I, Veracruz","gas_station, point_of_interest, establishment"
7757,20516,"SERVICIOS GASOLINEROS DE MEXICO, S.A. DE C.V.",PL/9164/EXP/ES/2015,-100.3018,25.78554,9943,19.3,regular,0,0,Gasolinera Pemex,"Av. Benito Juárez # 300, Lázaro Cárdenas, Cd Gral Escobedo","gas_station, point_of_interest, establishment"
7758,20518,"GASOLINERA NAINARI, S.A. DE C.V.",PL/8988/EXP/ES/2015,-109.9449,27.4993,9944,18.95,regular,4,30,PEMEX,"Av. Nainari 615 Pte, Centro, Urb. No. 5, Cd Obregón","gas_station, point_of_interest, establishment"
7759,20520,LEOCADIO MACIAS MUÑOZ,PL/8992/EXP/ES/2015,-102.29799999999999,21.27594,9945,19.26,regular,4,3,Pemex,"Blvd. Gustavo Diaz Ordaz Oriente # 1746, San Juan de los Lagos","gas_station, point_of_interest, establishment"
7760,20523,EDUARDO JAVIER GUERRERO MAYMES,PL/9181/EXP/ES/2015,-115.49700000000001,32.6563,9946,16.15,regular,0,0,Estación Servicio Guerrero Maymess,"Av. Michoacán 1200, Pueblo Nuevo, Mexicali","gas_station, point_of_interest, establishment"
7761,20524,E.S.G.E.S. S.A DE C.V,PL/9090/EXP/ES/2015,-92.91969,18.000339999999998,9947,17.49,regular,0,0,Pemex,Prolg. Eusebio Castillo y Prolg. Fco. Javier M 324,"gas_station, point_of_interest, establishment"
7762,20527,"COMBUSTIBLES ADITIVOS Y SERVICIOS MAGICOS, S. DE R.L. DE C.V.",PL/8908/EXP/ES/2015,-103.4035,20.66959,9948,18.8,regular,3,81,Gasolinera Pemex,"Calz. Lázaro Cárdenas N 3511, Jardín de San Ignacio, Zapopan","gas_station, point_of_interest, establishment"
7763,20529,MAXIMUS DE YUCATAN S.A. DE C.V.,PL/8984/EXP/ES/2015,-89.66971,21.051379999999998,9949,19.34,regular,4.5,2,Oxxo Gas Dzitya,Mérida,"gas_station, point_of_interest, establishment"
7764,20532,"GASOLINERA LOS ANGELES, S.A. DE C.V.",PL/9044/EXP/ES/2015,-98.20869,19.02657,9950,16.8,regular,3.9,95,Pemex,"Av.16 de Sept.No 4322 Esq. Blv.Heroes Del 5, Victoria del 5 de Mayo, Puebla","gas_station, point_of_interest, establishment"
7765,20534,Estacion de Servicio Tecolutla SA de CV,PL/9078/EXP/ES/2015,-97.01966999999999,20.47767,9951,19.6,regular,3.7,60,Pemex,Tecolutla,"gas_station, point_of_interest, establishment"
7766,20536,"SERVICIOS GASOLINEROS DE MEXICO, S.A. DE C.V.",PL/9107/EXP/ES/2015,-101.6091,21.0802,9952,18.89,diesel,4,1,Gasolinera Pemex,"Boulevard Aeropuerto Km. 3.5 No. 860, San Jose el Alto, León","gas_station, point_of_interest, establishment"
7767,20539,COROLEOS ZARAGOZA SA DE CV,PL/9121/EXP/ES/2015,-97.55063,19.765320000000003,9953,18.19,regular,5,1,Gasolinera Pemex,"Carretera Libre Federal Puebla-Nautla Km. 117+700, Zaragoza","gas_station, point_of_interest, establishment"
7768,20542,"GASOLINERA ARIES, S.A. DE C.V.",PL/9040/EXP/ES/2015,-98.20761999999999,19.00364,9954,17.3,regular,4,52,Pemex,"Privada Valsequillo # 6305, Villa Universitaria, Puebla","gas_station, point_of_interest, establishment"
7769,20545,AUTOSERVICIO EXPRES DE COMBUSTIBLES TERAN SA DE CV,PL/9191/EXP/ES/2015,-92.75909,15.37701,9955,18.38,regular,4.1,31,Pemex,"Carrt. Libre Km 205+700, Arriaga - Tapachula, Acapetahua","gas_station, point_of_interest, establishment"
7770,20548,Servicio Castaño SA de CV,PL/9051/EXP/ES/2015,-99.31843,19.639,9956,18.19,regular,0,0,G500,"Independencia, Ciudad Nicolás Romero","gas_station, point_of_interest, establishment"
7771,20551,MULTISERVICIOS ESPECIALIZADOS MORITA S.A. DE C.V.,PL/8905/EXP/ES/2015,-102.2481,21.862070000000003,9957,18.29,regular,3.6,9,Gasolinera,"20263, Av Siglo XXI 1502A, Solidaridad, Aguascalientes","gas_station, point_of_interest, establishment"
7772,20554,ESTACION GEMMA ZAPATERO SA DE CV,PL/8935/EXP/ES/2015,-98.2551,19.035999999999998,9958,17.44,regular,0,0,Gasolinera Pemex,"Boulevard Atlixco No. 4001-1, Emiliano Zapata","gas_station, point_of_interest, establishment"
7773,20557,SERVICIO LA FE S.A. DE C.V.,PL/9118/EXP/ES/2015,-98.66993000000001,20.06755,9959,17.35,regular,4.1,12,Pemex,Carr. Pachuca-Tulancingo Km. 10.5,"gas_station, point_of_interest, establishment"
7774,20560,"COMERCIALIZADORA GUIPTON, S.A. DE C.V.",PL/9166/EXP/ES/2015,-100.4137,20.633979999999998,9960,17.55,regular,4.1,291,Gasolinera BP,"Av Cerro Sombrerete 1042, Balcones de San Pablo, Santiago de Querétaro","gas_station, point_of_interest, establishment"
7775,20563,COMBUSTIBLES DE PLAYA SA DE CV,PL/8960/EXP/ES/2015,-95.83121,17.78361,9961,19.3,regular,3.4,28,"GASOLINERA ""PEMEX""",Playa Vicente,"gas_station, point_of_interest, establishment"
7776,20566,DAGOBERTO ROMAN ARELLANO,PL/8993/EXP/ES/2015,-104.2737,25.41818,9962,19.4,regular,4.3,11,GASOLINERA SAN LUIS DEL CORDERO,"CARR. ESTATAL 33 Y CALLE NICOLAS BRAVO, San Luis de Cordero","gas_station, point_of_interest, establishment"
7777,20568,GABINO RAFAEL VERGARA ROMERO,PL/9026/EXP/ES/2015,-98.79999000000001,18.70482,9963,18.49,regular,5,1,Esso,Morelos,"gas_station, point_of_interest, establishment"
7778,20571,ADRIANA SOTO MARTINEZ,PL/9147/EXP/ES/2015,-96.28421999999999,18.3796,9964,18.99,regular,3.6,16,Gas Station El Progreso E08694,Tierra Blanca,"gas_station, point_of_interest, establishment"
7779,20574,COMBUSTIBLES DEL VALLE DE CUYOACO SA de VC,PL/9199/EXP/ES/2015,-97.61695,19.59972,9965,18.65,regular,3.5,40,Gasolinera Cuyoaco,Cuyoaco,"gas_station, point_of_interest, establishment"
7780,20576,"SERVICIO CAMPOS, S.A. DE C.V.",PL/9089/EXP/ES/2015,-102.78399999999999,20.34731,9966,19.39,regular,3.7,191,Pemex,"Km. 79.5, Carr. Guadalajara - Ocotlán, La Barca, Poncitlán","gas_station, point_of_interest, establishment"
7781,20579,OSCAR GARCIA FERNANDEZ,PL/9119/EXP/ES/2015,-105.3693,23.79609,9967,18.86,regular,0,0,Pemex,Calle Norte # 25,"gas_station, point_of_interest, establishment"
7782,20582,Gasolinera OSGAR S.A. de C.V.,PL/8928/EXP/ES/2015,-109.9536,27.45753,9968,18.79,regular,0,0,Rendichicas,"Calle Michoacán No.5202, Col. Pradera Bonita, Cd Obregón","gas_station, point_of_interest, establishment"
7783,20585,SALVADOR CARBAJAL SANTOYO,PL/9020/EXP/ES/2015,-107.6115,31.46967,9969,15.77,regular,3.6,22,Gasolinera Pemex,"Carretera Cd.Juarez A Casas Grandes Km 112+245, Ascension","gas_station, point_of_interest, establishment"
7784,20588,SERVICIO TELCHAC SA DE CV,PL/9059/EXP/ES/2015,-89.27118,21.21426,9970,18.99,regular,3.8,16,PEMEX,"YUC 172, Telchac Pueblo","gas_station, point_of_interest, establishment"
7785,20591,DANIELA ELIZABETH FRANCO RIVERA,PL/8987/EXP/ES/2015,-101.2175,21.47051,9971,18.35,regular,5,1,Pemex,"Belisario Dominguez No.600, Aviacion, San Felipe","gas_station, point_of_interest, establishment"
7786,20593,"CORPORACIÓN GASOLINERA MILLENIUM, S.A. DE C.V.",PL/8903/EXP/ES/2015,-99.16615,18.89487,9972,18.89,regular,4,1,Pemex,"Blvd. Paseo Cuauhnáhuac, Apatlaco, Jiutepec","gas_station, point_of_interest, establishment"
7787,20596,GASOLINERA PATRIA SA DE CV,PL/8906/EXP/ES/2015,-103.4203,20.64351,9973,17.45,regular,4.3,532,Gasolinera SuGaso Patria,"Av. Patria 2495, Colli Urbano, Zapopan","gas_station, point_of_interest, establishment"
7788,20599,"SERVICIOS GASOLINEROS DE MEXICO, S.A. DE C.V.",PL/9170/EXP/ES/2015,-100.1435,25.6489,9974,19.3,regular,3.9,100,Gasolinera Pemex,"Carr. a San Roque 103, América Unida, Juárez","gas_station, point_of_interest, store, establishment"
7789,20602,"ESTACION DE SERVICIOS EL CAPITAN, SA DE CV",PL/9006/EXP/ES/2015,-115.2539,32.553470000000004,9975,16.79,regular,4.2,31,Pemex,"Carret. a, San Luis Río Colorado Km 26.5, Mexicali","gas_station, point_of_interest, establishment"
7790,20605,REBECA JIMENEZ RUIZ,PL/9002/EXP/ES/2015,-114.9997,32.19043,9976,17.49,regular,4.1,58,Gasolinera El Pasajero,"Durango 63, Estación Coahuila","gas_station, point_of_interest, establishment"
7791,20607,"SERVICIOS GASOLINEROS DE MEXICO, S.A. DE C.V.",PL/9167/EXP/ES/2015,-100.1431,25.69639,9977,19.3,regular,5,2,Pemex,Nuevo Leon,"gas_station, point_of_interest, establishment"
7792,20609,GRUPO IBARRA FLORES SA DE CV,PL/8911/EXP/ES/2015,-115.4613,32.65191,9978,18.53,premium,4.1,142,BP,"Calzada Justo Sierra, Burócratas, Mexicali","gas_station, convenience_store, cafe, food, point_of_interest, store, establishment"
7793,20611,GASOLINAS ARCAZA SA DE CV,PL/8888/EXP/ES/2015,-110.9054,27.92503,9979,19.9,regular,0,0,Pemex,"Prol. De Avenida Serdan Y Calzada Agustin, García López S/N, Centro, Heroica Guaymas","gas_station, point_of_interest, establishment"
7794,20613,"CORPORACIÓN GASOLINERA MILLENIUM, S.A. DE C.V.",PL/8923/EXP/ES/2015,-99.21245,19.50339,9980,18.99,regular,3.8,294,Hidrosina,"Calz. de Las Armas Mz.1 Lot.10 No.17-A, Industrial, Las Armas(Zona Ind.), Tlalnepantla de Baz","gas_station, point_of_interest, establishment"
7795,20616,"SERVICIOS GASOLINEROS DE MEXICO, S.A. DE C.V.",PL/9169/EXP/ES/2015,-100.3162,25.68346,9981,19.3,regular,4,60,Gasolinera Pemex,"Calle Jimenez # 957, Centro, Monterrey","gas_station, point_of_interest, establishment"
7796,20619,"GASOTANNY, S.A. DE C.V.",PL/8916/EXP/ES/2015,-99.19797,19.45424,9982,18.99,regular,3.6,158,Gasolinera Pemex,"Calz Legaria No. 211, Amp Torre Blanca, Ciudad de México","gas_station, point_of_interest, establishment"
7797,20621,GRUPO GASOLINERO MONMANI S.A. DE C.V.,PL/9143/EXP/ES/2015,-95.88056,18.09318,9983,18.3,regular,5,1,Pemex,"Carr.Cd. Aleman-Sayula Km 33 Esq.Blvd 16 de Septiembre, Loma Bonita","gas_station, point_of_interest, establishment"
7798,20624,SERVICIO URSULA SA DE CV,PL/9103/EXP/ES/2015,-106.4239,31.67854,9984,11.99,regular,4.1,76,Pemex,"Av. Tecnológico 5312, Comunitario Jarudo, Cd Juárez","gas_station, point_of_interest, establishment"
7799,20625,"CORPORACIÓN GASOLINERA MILLENIUM, S.A. DE C.V.",PL/8939/EXP/ES/2015,-99.11919,19.438470000000002,9985,18.79,regular,4.5,2,Gasolinera Pemex,"Av. del Trabajo 110, Morelos I, Morelos, Ciudad de México","gas_station, point_of_interest, establishment"
7800,20627,"Combustibles de Pachuca, S.A. de C.V.",PL/8956/EXP/ES/2015,-98.7593,20.10526,9986,17.49,regular,3.8,57,Combustibles de Pachuca S.A. de C. V. ES 6830,"Blvrd Felipe Angeles LT 256, Sta Julia, Pachuca de Soto","gas_station, point_of_interest, establishment"
7801,20630,E.S.G.E.S. S.A DE C.V,PL/9095/EXP/ES/2015,-90.54571999999999,19.83393,9987,19.59,regular,4.2,29,Pemex,"Av López Mateos # 191, Barrio de San José, Campeche","gas_station, point_of_interest, establishment"
7802,20632,"ROBINMEX, S.A. DE C.V.",PL/8877/EXP/ES/2015,-101.3393,20.66692,9988,17.69,regular,3.9,159,PEMEX,"Blvd. San Roque s/n, Barrio de la Calzada de Guadalupe, Irapuato","gas_station, point_of_interest, establishment"
7803,20634,SERVICIO JUSLA VALLE DE CHALCO S.A. DE C.V.,PL/9074/EXP/ES/2015,-98.95042,19.29102,9989,17.99,regular,3.1,12,Servicio Jusla,"Nte. 7 146, Maria Isabel, Valle de Chalco Solidaridad","gas_station, point_of_interest, establishment"
7804,20637,SERVICIO JIMAL CENTRO SA DE CV,PL/8880/EXP/ES/2015,-100.3317,25.67642,9990,19.9,regular,3.6,63,Pemex,"Calle Washington # 1863, Maria Luisa, Poniente, Monterrey","gas_station, point_of_interest, establishment"
7805,20639,SERVICIO ACAPULCO  DIAMANTE  S.A. DE C.V.,PL/9012/EXP/ES/2015,-99.80421,16.79172,9991,18.87,premium,3.9,14,bp,"Blvrd de las Naciones, Granjas del Marqués, Acapulco de Juárez","gas_station, convenience_store, cafe, food, point_of_interest, store, establishment"
7806,20641,SERVICIO LA COFRADIA SA DE CV,PL/8912/EXP/ES/2015,-102.0141,19.43794,9992,18.02,regular,3.1,9,Gasolinería,Uruapan,"gas_station, point_of_interest, establishment"
7807,20644,Comercializadora Kayro SA de CV,PL/9000/EXP/ES/2015,-95.21835,18.421329999999998,9993,18.15,regular,3.8,50,Gasolinera Grupo Kairo,"Las Flores, Nuevo Paraiso, San Andrés Tuxtla","gas_station, point_of_interest, establishment"
7808,20647,BURGOS PLUS GASOLINERAS S.A. DE C.V.,PL/9135/EXP/ES/2015,-98.2836,26.09254,9994,20.49,diesel,4.5,6,Pemex,"Calles Bravo y Matamoros No. 850, Reynosa","gas_station, point_of_interest, establishment"
7809,20650,"SERVICIOS GASOLINEROS DE MEXICO, S.A. DE C.V.",PL/9157/EXP/ES/2015,-100.3123,25.68669,9995,19.3,regular,0,0,Pemex,"Vicente Guerrero # 1234, Sarabia, Monterrey","gas_station, point_of_interest, establishment"
7810,20652,"SERVICIOS GASOLINEROS DE MEXICO, S.A. DE C.V.",PL/9174/EXP/ES/2015,-100.1816,25.70952,9996,19.46,diesel,4.1,21,Gasolinera Pemex,"A San Miguel 2929, Guadalupe","gas_station, point_of_interest, establishment"
7811,20655,ENERGETICOS LA VALENTINA SA DE CV,PL/9025/EXP/ES/2015,-103.585,19.882089999999998,9997,19.49,premium,4,227,Rimara Sayula,"Gral. Manuel Ávila Camacho 449 ote, Polanco, Sayula","gas_station, point_of_interest, establishment"
7812,20658,"SERVICIOS GASOLINEROS DE MEXICO, S.A. DE C.V.",PL/8881/EXP/ES/2015,-100.4493,25.65615,9998,20.49,premium,4.1,40,Pemex,"Autopista Saltillo - Monterrey Cuota, Sin Nombre de Colonia 25, Santa Catarina","gas_station, point_of_interest, establishment"
7813,20660,Gasolineras las Adelitas S.A. de C.V.,PL/8981/EXP/ES/2015,-98.7553,19.701970000000003,9999,18.8,regular,3.5,26,PEMEX,"55880, Av. Fray Bernardino Sahagún 5, Otumba Centro, Otumba de Gómez Farías","gas_station, point_of_interest, establishment"
7814,20663,"SERVICIOS GASOLINEROS DE MEXICO, S.A. DE C.V.",PL/9109/EXP/ES/2015,-99.17684,23.753439999999998,10000,18.99,regular,3,2,Pemex,"Carretera 85 Nacional Vía Corta Tampico Kilómetro 74+700, Ejido San Juan el Ranchito, Cd Victoria","gas_station, point_of_interest, establishment"
7815,20666,SERVICIOS PALO VERDES SA DE CV,PL/8977/EXP/ES/2015,-109.9156,27.46514,10001,18.88,regular,3.7,3,PEMEX,"Rodolfo Félix y o C. 300, Miravalle, Cd Obregón","gas_station, point_of_interest, establishment"
7816,20669,ELIO LOPEZ DOMINGUEZ,PL/9187/EXP/ES/2015,-97.64679,19.13942,10002,15.87,regular,3.9,14,Pemex,"Tecamachalco, San Salvador el Seco","gas_station, point_of_interest, establishment"
7817,20672,SERVICIO LINDA VISTA SA DE CV,PL/9125/EXP/ES/2015,-106.4816,31.696620000000003,10003,11.99,regular,3.8,111,Pemex,"Olmecas 5437, Aztecas, Cd Juárez","gas_station, point_of_interest, establishment"
7818,20673,ALEJANDRO MANUEL MENDEZ HURTADO,PL/8879/EXP/ES/2015,-102.0301,19.40397,10004,18.19,regular,2.5,2,Pemex Michoacan,"Pemex, Uruapan","gas_station, point_of_interest, establishment"
7819,20676,"CORPORACIÓN GASOLINERA MILLENIUM, S.A. DE C.V.",PL/8924/EXP/ES/2015,-98.09792,20.1375,10005,18.99,regular,4,2,Pemex,"Km 86+800 Carret. Pachuca, Tuxpan - Mexico, Huauchinango","gas_station, point_of_interest, establishment"
7820,20679,"OCTANT, S.A. DE C.V.",PL/9015/EXP/ES/2015,-99.09225,19.4416,10006,18.05,regular,3.7,447,Pemex,"Av Oceanía 235, Pensador Mexicano, Ciudad de México","gas_station, point_of_interest, establishment"
7821,20681,"SERVICIOS GASOLINEROS DE MEXICO, S.A. DE C.V.",PL/9149/EXP/ES/2015,-100.0964,25.64622,10007,19.3,regular,4.3,13,Pemex,"Joaquín Garza y Garza, Juárez","gas_station, point_of_interest, establishment"
7822,20683,E.S.G.E.S. S.A DE C.V,PL/9091/EXP/ES/2015,-92.92425,18.005679999999998,10008,17.69,regular,2,1,Pemex,"Zona de la Cultura, Av Universidad # 228, Casa Blanca 1ra Secc, Villahermosa","gas_station, point_of_interest, establishment"
7823,20685,"ENERGIA Y SERVICIOS COORDINADOS, S.A. DE C.V.",PL/8871/EXP/ES/2015,-99.92681999999999,20.29356,10009,18.09,regular,4.1,83,Pemex,Querétaro,"gas_station, point_of_interest, establishment"
7824,20688,E.S.G.E.S. S.A DE C.V,PL/9094/EXP/ES/2015,-90.74789,18.60761,10010,19.38,regular,4.5,2,Gasolinera LaGas,"Unidad Esfuerzo y Trabajo II, Escárcega","gas_station, point_of_interest, establishment"
7825,20691,JOSE MANUEL JAVIER CERVANTES LOPEZ,PL/9130/EXP/ES/2015,-98.22876,19.16882,10011,17.98,premium,4.1,19,Pemex,"Av. Hidalgo Km 15.5, Cuarta Secc, Xicohtzinco","gas_station, point_of_interest, establishment"
7826,20693,BARRAM Y ASOCIADOS SA DE CV,PL/8966/EXP/ES/2015,-98.60134000000001,26.22983,10012,14.58,regular,4.7,6,Combustibles y Lubricantes Salinas,"Camargo 359, Zona Centro, Cd Gustavo Díaz Ordaz","gas_station, point_of_interest, establishment"
7827,20696,SUPER-GAS LOS MANGOS SA DE CV,PL/8901/EXP/ES/2015,-94.04179,16.21452,10013,19.84,regular,4.6,24,Gasolinera Pemex,"Talisman, 11a. Sur Sn, Arriaga","gas_station, point_of_interest, establishment"
7828,20699,EL CICLOPE DEL ORIENTE S.A DE C.V.,PL/9146/EXP/ES/2015,-98.7769,19.14967,10014,18.59,regular,3.3,29,Estación de Servicio Repsol,"Carretera Federal México-Cuautla Km. 57 S/N, Col, San Francisco Zentlalpan","gas_station, point_of_interest, establishment"
7829,20702,"GASOLINERA CARBEL, SA DE CV",PL/9204/EXP/ES/2015,-107.354,24.79382,10015,17.99,regular,4.2,33,Gasolinera Pemex,"Paseo De Los Agricultores Acera Oriente #974 Sur, La Amistad, Culiacán Rosales","gas_station, point_of_interest, establishment"
7830,20705,JORGE CASAL GONZALEZ,PL/9160/EXP/ES/2015,-108.0766,25.44904,10016,19.2,regular,3.7,3,Gasolinera Pemex,"Enrique Dunant No.1008, Fracc. Los Parques, Guamúchil","gas_station, point_of_interest, establishment"
7831,20707,"GASOLINERA FOY TREBOL, SA DE CV.",PL/9200/EXP/ES/2015,-97.52385,20.67023,10017,19.8,diesel,4,402,Foy gas station Clover,"Carretera Tampico-Poza Rica Km 213, Tihuatlán","gas_station, point_of_interest, establishment"
7832,20710,SERVICIO LOS DELFINES SA DE CV,PL/8980/EXP/ES/2015,-103.3161,20.674889999999998,10018,18.29,regular,4.3,204,Dolphins service Suc Republic,"Av. República 1436, Oblatos, Guadalajara","gas_station, point_of_interest, establishment"
7833,20713,"SERVICIO CIENEGA GRANDE, S.A. DE C.V.",PL/9138/EXP/ES/2015,-102.0066,22.2154,10019,18.98,regular,4.4,14,Gasolinera Pemex,"Km Ribier - San Marcos Km 44.43, Real de Asientos","gas_station, point_of_interest, establishment"
7834,20716,E.S.G.E.S. S.A DE C.V,PL/9097/EXP/ES/2015,-91.80485,18.64817,10020,18.35,regular,3.9,176,The Gas Island Tris,"Isla de Tris 111, Francisco I. Madero, Cd del Carmen","gas_station, point_of_interest, establishment"
7835,20718,"SERVICIOS GASOLINEROS DE MEXICO, S.A. DE C.V.",PL/8963/EXP/ES/2015,-101.3158,20.662329999999997,10021,19.45,premium,3.9,36,Pemex,"36545, Blvrd Paseo Solidaridad 6749, Rafael Galvan, Irapuato","gas_station, point_of_interest, establishment"
7836,20721,LUZ DEL CARMEN FONTAN HERNANDEZ,PL/8996/EXP/ES/2015,-96.16422,19.2108,10022,16.65,regular,3.8,109,Pemex SERVICIO LUCHA,"Prol Cuauhtémoc 197, Fraccionamiento del Nte, Veracruz","gas_station, point_of_interest, establishment"
7837,20723,MARIA SOLEDAD CUENCA MERLO,PL/8990/EXP/ES/2015,-97.79796,19.42715,10023,18.3,diesel,2.9,10,Gasolinera ES ***,"Calle 7 Pte 6, San Antonio","gas_station, point_of_interest, establishment"
7838,20725,Auto Servicio Nucar sa de cv,PL/9066/EXP/ES/2015,-100.4,19.85399,10024,18.9,regular,0,0,G500,Michoacán,"gas_station, point_of_interest, establishment"
7839,20728,"GASOLINERA FOS AEROPUERTO, SA DE CV.",PL/9197/EXP/ES/2015,-97.49484,20.59171,10025,18.99,regular,3.8,31,Repsol,Veracruz,"gas_station, point_of_interest, establishment"
7840,20731,"COMBUSTIBLES Y SERVICIO SANTA MARIA, S.A. DE C.V.",PL/9105/EXP/ES/2015,-99.87657,25.739910000000002,10026,19.33,regular,0,0,Pemex,Carrt.Sta.Ma.La Floreña Km. 24 Cruce Paso De,"gas_station, point_of_interest, establishment"
7841,20733,"SERVICIOS ENERGETICOS EL TORREONSITO, S.A. DE C.V.",PL/9069/EXP/ES/2015,-102.9573,25.490460000000002,10027,17.45,regular,4.2,29,CargoGas Zapata,"Carretera Matamoros Km 30, Viesca, Ejido Emiliano Zapata","gas_station, point_of_interest, establishment"
7842,20735,SERVICIOS LOGISTICOS DE ORIENTE SA DE CV,PL/9064/EXP/ES/2015,-89.57294,20.945339999999998,10028,18.79,regular,4,20,Gasolinera Pemex,"Tablaje Catastral 13021, Anillo Periferico, Oriente, Mérida","gas_station, point_of_interest, establishment"
7843,20738,"SERVICIOS GASOLINEROS DE MEXICO, S.A. DE C.V.",PL/9151/EXP/ES/2015,-100.3811,25.7739,10029,19.46,diesel,3.9,138,OXXO GAS CENIZO,"Av. Cabezada, Mirasol 1o., Monterrey","gas_station, point_of_interest, establishment"
7844,20741,Servicio Morgusa SA de CV,PL/9054/EXP/ES/2015,-98.7189,20.10182,10030,16.99,regular,4.1,36,Pemex,Carret. Pachuca-Tulancingo Km 1+500 No. 100,"gas_station, point_of_interest, establishment"
7845,20744,VIZA LUAN GASOLINERIA SA DE CV,PL/9050/EXP/ES/2015,-99.72063,20.82696,10031,18.02,regular,3.5,46,"Viza Luan Gasolineria, S.A. DE C.V.","Carr. S.J.R.- Xilitla Km. 73.2. Vizarron de, Cadereyta de Montes","gas_station, point_of_interest, establishment"
7846,20747,"SERVICIOS GASOLINEROS DE MEXICO, S.A. DE C.V.",PL/9168/EXP/ES/2015,-100.948,25.47195,10032,18.89,premium,4.2,31,Oxxo Gas,"Callejone San Francisco, Los González, Saltillo","gas_station, point_of_interest, establishment"
7847,20749,E.S.G.E.S. S.A DE C.V,PL/9087/EXP/ES/2015,-90.53315,19.82289,10033,19.59,regular,3.8,20,Pemex,"Av Patricio Trueba de Regil, Sascalum, Campeche","gas_station, point_of_interest, establishment"
7848,20752,MARIO LUIS TORRES DE LIRA,PL/9145/EXP/ES/2015,-99.66096,19.2899,10034,17.69,regular,4.4,7,Pemex,"Melchor Ocampo # 101, Barrio de la Merced, Toluca de Lerdo","gas_station, point_of_interest, establishment"
7849,20754,BURGOS PLUS GASOLINERAS S.A. DE C.V.,PL/9070/EXP/ES/2015,-98.28484,26.07834,10035,14.78,regular,0,0,Gasolinera Pemex,"San Luis Potosí No. 300, Rodríguez, Reynosa","gas_station, point_of_interest, establishment"
7850,20756,"Hidrocarburos La Marquesilla, S.A. de C.V.",PL/9186/EXP/ES/2015,-95.25745,18.00725,10036,18.35,regular,3.7,565,Gasolinera Mata Verde,"Autopista Pinaja Sayura, Juan Rodríguez Clara","gas_station, point_of_interest, establishment"
7851,20759,SINERGIA DE ENERGETICOS S.A. DE C.V.,PL/9116/EXP/ES/2015,-98.22664,19.05175,10037,17.94,regular,4.2,9,Gas Station Enterprise,"Carretera Puebla-Atlixco No. 8138, Puebla Centro, Puebla","gas_station, point_of_interest, establishment"
7852,20762,SAMUEL CHAVEZ VILLALOBOS,PL/8948/EXP/ES/2015,-105.7062,26.94272,10038,19.1,regular,3.6,8,Pemex,"Km.3 Carr.Parral Santa Barbara San Fco.del Oro, Hidalgo del Parral","gas_station, point_of_interest, establishment"
7853,20765,"GASOLINERA FOS IDOLITOS, SA DE CV.",PL/9129/EXP/ES/2015,-97.65946,20.88591,10039,18.75,regular,3.7,226,Gasolinera Foy Idolo Dos,"Carretera Poza Rica Kilómetra 432 SN, Estero Del Idolo, Temapache","gas_station, point_of_interest, establishment"
7854,20767,JESUS JOSE GONZALEZ MONTAÑEZ,PL/9194/EXP/ES/2015,-101.9785,22.26756,10040,18.9,regular,3.5,49,Servicio Alejandra,"20 de Nov. 1, Fracc. Valle Real, Loreto","gas_station, point_of_interest, establishment"
7855,20770,Combustibles y Lubricantes Chontal SA de CV,PL/9085/EXP/ES/2015,-95.61476,15.97957,10041,19.9,premium,3.6,58,Pemex,"Carretera Costera Salina Cruz - Huatulco Km. 326, La Tortolita, Santiago Astata","gas_station, point_of_interest, establishment"
7856,20773,ESTACION DE SERVICIO LA RESURRECCION S.A. DE C.V.,PL/9115/EXP/ES/2015,-98.15562,19.0603,10042,17.7,diesel,3.3,3,Service Station Resurrection S.A. de C.V.,"Calle Antiguo Camino a Manzanillo No. 22, Camino a Manzanilla, Puebla","gas_station, point_of_interest, establishment"
7857,20776,ENERGIA FATIMA SA DE CV,PL/8982/EXP/ES/2015,-103.4309,20.74139,10043,18.49,regular,0,0,Gasolinera Pemex,"Av Valle de Atemajac 2445, Fracc. Plaza Real I, Zapopan","gas_station, point_of_interest, establishment"
7858,20778,"SERVICIO LAS TORRES, S.A DE C.V.",PL/9183/EXP/ES/2015,-102.9986,23.27974,10044,19.1,regular,0,0,Pemex,"Ent.Carrt.Fresnillo-Durango-S.J.Lourdes Km 5+000, Fresnillo","gas_station, point_of_interest, establishment"
7859,20781,AUTO SERVICIO LA ESTANCIA S. A. DE C.V.,PL/9046/EXP/ES/2015,-103.6854,19.2345,10045,18.9,regular,3.9,60,Pemex,"Av. Niños Héroes N 289, Burócratas, Colima","gas_station, point_of_interest, establishment"
7860,20784,Servicio Castellana SA de CV,PL/9048/EXP/ES/2015,-98.86344,19.342760000000002,10046,17.65,regular,3.6,104,Pemex,"Av. Morelos # 11, San Francisco Acuautla, Ixtapaluca","gas_station, point_of_interest, establishment"
7861,20787,GASOLINERA URUAPAN SA DE CV,PL/9004/EXP/ES/2015,-102.0337,19.41691,10047,19.19,regular,5,3,Pemex,"Calz. la Fuente, La Perla, Uruapan","gas_station, point_of_interest, establishment"
7862,20790,SUPER SERVICIOS SANTA ANA S A DE C V,PL/8921/EXP/ES/2015,-102.5476,19.16984,10048,20.07,regular,4.3,3,Gasolinera santana,Santa Ana Amatlán,"gas_station, point_of_interest, establishment"
7863,20793,ESTACION DE SERVICIO TEOJOMULCO S.A. DE C.V.,PL/9072/EXP/ES/2015,-97.23229,16.586270000000003,10049,19.97,regular,0,0,Gasolinera Pemex,"El Acahual, 21 De Marzo S/N, Santo Domingo Teojomulco","gas_station, point_of_interest, establishment"
7864,20795,Comercializadora Kayro SA de CV,PL/9024/EXP/ES/2015,-95.19369,18.43686,10050,18.15,regular,3.8,50,Gasolinera Grupo Kairo,"Las Flores, Nuevo Paraiso, San Andrés Tuxtla","gas_station, point_of_interest, establishment"
7865,20798,AUTO SERVICIO COMERCIAL BACHICUY SA DE CV,PL/8894/EXP/ES/2015,-109.5156,31.318340000000003,10051,15.29,regular,0,0,Element Fuel,"Calle 16 46, Manuel J. Clourtier, Agua Prieta","gas_station, point_of_interest, establishment"
7866,20801,"SERVICIO CERRO GORDO, S.A. DE C.V.",PL/8937/EXP/ES/2015,-99.05339000000001,19.5469,10052,18.99,regular,3.7,71,Pemex,"Vía Morelos # 373, Santa Clara Cerro Gordo, Ecatepec de Morelos","gas_station, point_of_interest, establishment"
7867,20804,SERVICIO TEPEACA S.A. DE C.V.,PL/9113/EXP/ES/2015,-97.90289,18.9769,10053,17.88,regular,3.8,8,Pemex,"Av. Hidalgo No. 700, San José, Tepeaca","gas_station, point_of_interest, establishment"
7868,20807,Servicios Sahuaro de Obregon S.A. de C.V.,PL/8929/EXP/ES/2015,-109.9296,27.482409999999998,10054,18.47,regular,4.1,113,Pemex,"Calle Jalisco # 950 Sur, Centro","gas_station, point_of_interest, establishment"
7869,20810,Gasolineras las Adelitas S.A. de C.V.,PL/8983/EXP/ES/2015,-98.75463,19.70175,10055,18.8,regular,3.5,26,PEMEX,"55880, Av. Fray Bernardino Sahagún 5, Otumba Centro, Otumba de Gómez Farías","gas_station, point_of_interest, establishment"
7870,20812,GASOLINERA Y SERVICIOS RIO HUMAYA SA DE CV,PL/9205/EXP/ES/2015,-107.4079,24.8329,10056,16.87,regular,0,0,Gasolinera Pemex,"Boulevard Enrique Cabrera S/N Fracc. El, Pedregal del Humaya, Culiacán Rosales","gas_station, point_of_interest, establishment"
7871,20815,"SERVICIOS GASOLINEROS DE MEXICO, S.A. DE C.V.",PL/9154/EXP/ES/2015,-100.3858,25.74801,10057,19.3,regular,3.6,5,Pemex,"Av Abraham Lincoln # 6771, Plutarco Elías Calles, Monterrey","gas_station, point_of_interest, establishment"
7872,20817,IRMA ELOISA NAVA REYES,PL/8975/EXP/ES/2015,-97.73738,21.311329999999998,10058,18.5,regular,4.7,3,Gasolinera,"Tampico-Poza Rica 9932, Amatlán","gas_station, point_of_interest, establishment"
7873,20820,Operadora Nextremor S.A. de C.V.,PL/8971/EXP/ES/2015,-99.08971,19.74194,10059,17.58,regular,3.9,21,Pemex,"Av Juárez 645-B, Santiago Atocan, Santa Ana Nextlalpan","gas_station, point_of_interest, establishment"
7874,20823,"Estación 0231, S.A. de C.V.",PL/9063/EXP/ES/2015,-99.10651,19.63547,10060,18.74,regular,0,0,G500,"Calle José Maria Morelos y Pavón, Coacalco, San Francisco Coacalco","gas_station, point_of_interest, establishment"
7875,20825,GASOLEDAD S.A. DE C.V.,PL/9079/EXP/ES/2015,-100.9291,22.18957,10061,17.35,regular,5,1,gasolineria,"Prol. Melchor Ocampo 632-634, Soledad de Graciano Sanchez, Soledad de Graciano Sánchez","gas_station, point_of_interest, establishment"
7876,20828,"SERVICIO GARLO, S.A. DE C.V.",PL/9008/EXP/ES/2015,-100.8303,19.8561,10062,19.05,regular,3.5,58,PEMEX-5439,"Lib. Sur, Centro, Zinapecuaro de Figueroa","gas_station, point_of_interest, establishment"
7877,20830,GASOLINERA LA CAPACHA SA DE CV,PL/9071/EXP/ES/2015,-103.4217,20.54256,10063,17.99,regular,2,2,Gasolinera Pemex,"Carretera San Sebastian Santa Maria Num.383, La Capacha, Tlajomulco de Zúñiga","gas_station, point_of_interest, establishment"
7878,20833,"CORPORACIÓN GASOLINERA MILLENIUM, S.A. DE C.V.",PL/8927/EXP/ES/2015,-93.89707,16.23467,10064,20.19,regular,3.7,16,Pemex,"3a. Norte y 2a. Ote Num 11, Arriaga - Tapachula","gas_station, point_of_interest, establishment"
7879,20835,"ESTACION DE SERVICIO MADERO, SA DE CV.",PL/8959/EXP/ES/2015,-97.87581,22.32658,10065,17.05,regular,0,0,Pemex,"Carr. Tampico Mante Km.142, Tampico Altamira, Altamira","gas_station, point_of_interest, establishment"
7880,20838,ORALIA ADAME GONZALEZ,PL/9132/EXP/ES/2015,-107.4756,29.03936,10066,19.0,regular,3.8,5,Gasolinera Salida Independencia,"CHIH 5, Santa Ana","gas_station, point_of_interest, establishment"
7881,20840,Super Servicio El Cortijo SA de CV,PL/9052/EXP/ES/2015,-99.20643000000001,20.47146,10067,18.39,premium,0,0,Gasolinera Pemex,"Av. Insurgentes Ote. No.179, Miguel Hidalgo, Ixmiquilpan","gas_station, point_of_interest, establishment"
7882,20843,"GASOLINERA EL DIAMANTE, S.A. DE C.V.",PL/8953/EXP/ES/2015,-100.9,18.65971,10068,19.95,regular,3.9,63,PEMEX-7199,"México 51, Huetamo","gas_station, point_of_interest, establishment"
7883,20846,"COMERCIALIZADORA DE HIDROCARBUROS DE LEÓN, S.A. DE C.V.",PL/8874/EXP/ES/2015,-101.6244,21.1384,10069,17.25,regular,0,0,Mobil,"Predio, Blvd. Juan Alonso de Torres Pte. No. 4008, Fracciones Cañada de Alfaro, León","gas_station, point_of_interest, establishment"
7884,20849,GARZE COMBUSTIBLES SA DE CV,PL/9014/EXP/ES/2015,-99.12599,23.736929999999997,10070,18.49,regular,4.1,93,Estaciones de Servicio Nexum,"Av 16 de Septiembre 2822, Dieciséis de Septiembre, Cd Victoria","gas_station, point_of_interest, establishment"
7885,20851,"GASOLINERA FOS CERRO AZUL, SA DE CV.",PL/9195/EXP/ES/2015,-97.74355,21.184839999999998,10071,19.2,regular,3.5,35,Gasolinera,"Calle Rafael Nieto 155, El Cuatro, Cerro Azul","gas_station, point_of_interest, establishment"
7886,20854,SERVICIO NUEVA ESPAÑA SA DE CV,PL/8910/EXP/ES/2015,-103.3924,20.61692,10072,17.45,regular,4.3,372,SuGaso GDL (Servicio Nueva España),"Av. Cristóbal Colón 4501, Guadalajara","gas_station, point_of_interest, establishment"
7887,20857,"Servicio Telix, S.A. de C.V.",PL/9033/EXP/ES/2015,-99.00348000000001,19.387610000000002,10073,18.55,regular,3.8,283,Estación de Servicio Repsol,"Av. Pantitlán No. 533, La Perla, Nezahualcóyotl","gas_station, point_of_interest, establishment"
7888,20859,"Servicio 1 de Mayo, S.A. de C.V.",PL/9127/EXP/ES/2015,-99.05937,19.788610000000002,10074,17.99,regular,3.6,68,Pemex,"Carr Zumpango - Tecamac, San Sebastian, Zumpango de Ocampo","gas_station, point_of_interest, establishment"
7889,20862,SERVICIO LOS DELFINES SA DE CV,PL/8978/EXP/ES/2015,-103.4254,20.74036,10075,18.49,regular,3.8,4,Servicio Acueducto,"Av. Acueducto 1499, Girasoles Elite, Girasoles Acueducto, Zapopan","gas_station, point_of_interest, establishment"
7890,20865,"CORPORACIÓN GASOLINERA MILLENIUM, S.A. DE C.V.",PL/8925/EXP/ES/2015,-99.09904,19.372629999999997,10076,19.39,regular,4,13,Hidrosina,"Avenida Toltecas 69, Área Federal Central de Abastos, Ciudad de México","gas_station, point_of_interest, establishment"
7891,20868,"SERVIGAZ GONZALITOS, S.A. DE C.V.",PL/9080/EXP/ES/2015,-100.3511,25.6974,10077,17.99,regular,3.9,64,Gasolinera Pemex,"Numero 977, Dr. José Eleuterio González (Gonzalitos), Fraccionamiento Los, Leones, Monterrey","gas_station, point_of_interest, establishment"
7892,20870,"RGA SERVIGAZ, S.A. DE C.V.",PL/9082/EXP/ES/2015,-100.2934,25.69955,10078,17.94,regular,3.5,61,Gasolinera Pemex,"Av. Félix U. Gómez 2929, Villas de Linda Vista, Monterrey","gas_station, point_of_interest, establishment"
7893,20873,ROSARIO HERNANDEZ RODRIGUEZ,PL/9171/EXP/ES/2015,-99.9035,20.23039,10079,18.99,regular,0,0,Pemex,State of Mexico,"gas_station, point_of_interest, establishment"
7894,20876,E.S.G.E.S. S.A DE C.V,PL/9179/EXP/ES/2015,-91.82518,18.631510000000002,10080,19.69,regular,3.7,71,Pemex,"Av. Luis Donaldo Colosio X Calle 15 y 36 ""C, Cd del Carmen","gas_station, point_of_interest, establishment"
7895,20879,SERVICIOS EL PALMAR VERDE SA DE CV,PL/8941/EXP/ES/2015,-107.4754,24.87527,10081,18.64,regular,0,0,Pemex,"Carr. Mexico-Nogales No 10111 Acera Pte, Culiacán Rosales","gas_station, point_of_interest, establishment"
7896,20882,ANA BERTHA GUERRA HINOJOSA,PL/9122/EXP/ES/2015,-97.8144,25.667920000000002,10082,17.15,regular,0,0,Servicio Anaje,"Zona Centro, Valle Hermoso","gas_station, point_of_interest, establishment"
7897,20884,"GRUPO ENER GAS, S.A. DE C.V.",PL/9076/EXP/ES/2015,-99.19606,18.93579,10083,19.09,diesel,4.2,64,BP,"Privada, De La Cascada, Cuernavaca","gas_station, atm, finance, cafe, food, point_of_interest, establishment"
7898,20887,Gasolinera Agricola S.A. de C.V.,PL/9011/EXP/ES/2015,-108.2612,31.13653,10084,17.6,regular,4.3,15,Pemex,"Avenida Principal No.743, Buenavista, Janos","gas_station, point_of_interest, establishment"
7899,20889,"SERVICIOS GASOLINEROS DE MEXICO, S.A. DE C.V.",PL/9172/EXP/ES/2015,-100.2495,25.58971,10085,19.34,regular,4.1,57,PEMEX OXXO GAS,"Av. la Luz 6113-2, La Estanzuela, Monterrey","gas_station, point_of_interest, establishment"
7900,20892,OSCAR ISAURO LOPEZ ROMERO,PL/8979/EXP/ES/2015,-92.55905,16.33738,10086,19.37,regular,3.3,21,Gasolinera San Pedro,"Av. Central Pte. 135, Zona Centro, Venustiano Carranza","gas_station, point_of_interest, establishment"
7901,20894,"INTEGRANTES DEL EJIDO DE SAN CRISTOBAL TEXCALUCAN,",PL/9075/EXP/ES/2015,-99.29964,19.41413,10087,20.35,regular,3.8,191,Gasolineria/Punto de Reunion. No. 3605,Carr Toluca - México Mz 10 Lt 6,"gas_station, point_of_interest, establishment"
7902,20897,"SERVICIO EXPRESS COYOTEPEC, S.A. DE C.V.",PL/9022/EXP/ES/2015,-99.18074,19.79166,10088,18.05,regular,4,35,SERVICIO EXPRESS COYOTEPEC SA DE CV,"MEX 6 2061, San Juan Zitlaltepec","gas_station, point_of_interest, establishment"
7903,20900,HR SOL SERVICIOS ADMINISTRATIVOS FONDO 3 S.A DE C.V.,PL/9047/EXP/ES/2015,-98.97277,19.83909,10089,18.84,regular,3.7,3,Gasolinera Pemex,"Club Rotario No. 12, Nacozari, Tizayuca","gas_station, point_of_interest, establishment"
7904,20903,"GASOLINERA REFORMA, SA DE CV",PL/9005/EXP/ES/2015,-116.9813,32.51508,10090,20.09,regular,0,0,Gasolinera Pemex,"Vía Rápida Ote. No. 13540, Buena Vista, El Chamizal, Tijuana","gas_station, point_of_interest, establishment"
7905,20906,"SERVICIO REGIO CUATRO, S.A. DE C.V.",PL/8872/EXP/ES/2015,-93.3137,18.269389999999998,10091,18.05,diesel,3,2,MasGas,Carret. Estatal Tecolutilla-Comalcalco Km 15,"gas_station, point_of_interest, establishment"
7906,20909,"SERVICIOS GASOLINEROS DE MEXICO, S.A. DE C.V.",PL/8882/EXP/ES/2015,-100.2328,25.69572,10092,19.3,regular,3.7,211,Pemex,"Av. Miguel Alemán Km, 8, Guadalupe","gas_station, point_of_interest, establishment"
7907,20912,"GASOLINERA LOS PRIMOS POBLANA, S.A. DE C.V.",PL/9036/EXP/ES/2015,-98.16481999999999,19.08311,10093,17.1,regular,3.6,16,Gasolineria Los Primos,"Unnamed Road, Industrial Resurrección, Puebla","gas_station, point_of_interest, establishment"
7908,20914,PARADOR LOS MEZQUITES S.A. DE C.V.,PL/8976/EXP/ES/2015,-105.9388,28.527929999999998,10094,18.42,regular,5,1,Gasolinera Pemex,"Carretera Federal Chih.-Delicias No. 16601, Chihuahua","gas_station, point_of_interest, establishment"
7909,20917,GASOLINERAS SURMEX SA DE CV,PL/9128/EXP/ES/2015,-97.58728,19.88164,10095,18.47,regular,3.5,2,Gasolinera Pemex,"Calle Bicentenario, Libramiento Oriente Esq, Zacapoaxtla","gas_station, point_of_interest, establishment"
7910,20920,Combustibles Yañez SA de CV,PL/9029/EXP/ES/2015,-96.1678,19.18927,10096,16.3,regular,4,152,Pemex - Combustibles Yañez,"Calle Agustin Yáñez 3294, Los Reyes, Veracruz","gas_station, point_of_interest, establishment"
